Municipality,Longitude,Latitude
?utselk'e,-110.74,62.4
Aklavik,-135.01,68.22
Akulivik,-78.2,60.8
Aldina,-106.88,53.0
Angus,-79.88,44.32
Apple Hill,-74.77,45.22
Arctic Bay,-85.17,73.03
Arviat,-94.06,61.11
Aspen Grove,-120.62,49.93
Atwood,-81.02,43.67
Badgerville,-101.92,51.63
Baker Brook,-67.67,47.18
Bakers Narrows,-101.66,54.68
Barrière,-120.12,51.18
Bathurst Inlet,-108.05,66.84
Beaverton,-79.15,44.43
Behchok??,-116.06,62.83
Bellarmin,-70.59,45.75
Black Tickle,-55.77,53.46
Blaketown,-53.55,47.48
Bourget,-75.16,45.44
Bowen Bay,-123.42,49.35
Brant,-81.14,44.19
Bridgenorth,-78.38,44.38
Bromptonville,-71.94,45.47
Brownsburg,-74.41,45.68
Brûlé,-117.87,53.28
Buchans Junction,-56.48,48.85
Burwash Landing,-138.99,61.36
Bushell Park,-105.55,50.33
Calstock,-84.14,49.79
Cannington,-79.04,44.35
Cape Dorset,-76.54,64.23
Cape Egmont,-64.1,46.4
Cape Ray,-59.29,47.64
Cap-Pele,-64.27,46.22
Carcross,-134.71,60.17
Carmacks,-136.3,62.09
Carway,-113.38,49.0
Castor River North,-56.96,50.93
Cat Lake,-91.82,51.72
Catalina,-53.08,48.52
Cavendish,-53.49,47.72
Chesterfield Inlet,-90.7,63.34
Churchill Falls,-64.01,53.53
Clarenceville,-73.25,45.06
Cobbs Arm,-54.57,49.62
Colville Lake,-126.09,67.04
Comber,-82.55,42.23
Cumberland Beach,-79.39,44.7
Cutler,-82.46,46.2
Deadman's Bay,-53.69,49.35
Deep Bight,-53.95,48.09
Del Bonita,-112.79,49.03
Dél?ne,-123.42,65.19
Destruction Bay,-138.8,61.25
Dettah,-114.31,62.41
Dildo,-53.55,47.57
Dublin,-81.29,43.5
Ellerslie,-63.94,46.6
Eskasoni,-60.62,45.94
Faro,-133.36,62.23
Flat Bay,-58.56,48.43
Florenceville,-67.61,46.45
Fogo,-54.28,49.71
Forresters Point,-56.8,51.18
Fort Albany,-81.68,52.21
Fort Good Hope,-128.64,66.26
Fort Liard,-123.48,60.24
Fort McMurray,-111.38,56.73
Fort McPherson,-134.88,67.44
Fort Providence,-117.65,61.36
Fort Resolution,-113.67,61.17
Fort Severn,-87.62,56.0
Frances Lake,-129.29,61.28
François,-56.75,47.58
Gamètì,-117.35,64.11
Gaskiers,-53.61,46.87
Gaspereaux,-62.47,46.11
Georges Brook,-54.34,48.5
Georgian Highlands,-80.13,44.77
Gjoa Haven,-95.88,68.63
Goodfish Lake,-111.81,54.3
Gordondale,-119.54,55.84
Grandes-Bergeronnes,-69.55,48.25
Grasmere,-115.08,49.1
Great Harbour Deep,-56.52,50.37
Green Island Brook,-56.53,51.4
Grey River,-57.1,47.59
Grise Fiord,-82.9,76.42
Haines Junction,-137.51,60.75
Happy Valley-Goose Bay,-60.45,53.34
Hawkestone,-79.47,44.5
Hermitage,-55.93,47.55
Highlands-District of,-123.51,48.48
Hodge's Cove,-53.74,48.01
Horwood,-54.52,49.46
Igloolik,-81.8,69.38
Ilderton,-81.38,43.08
Ivujivik,-77.92,62.42
Jean de Baie,-55.07,47.22
Jean Marie River,-120.63,61.53
Jenner,-111.18,50.75
Joe Batt's Arm-Barr'd Islands-Shoal Bay,-54.15,49.72
John D'Or Prairie,-115.15,58.5
Johnsons Crossing,-133.31,60.48
Joutel,-78.31,49.46
Kangirsuk,-70.03,60.02
Kasabonika,-88.61,53.53
Keno Hill,-135.3,63.91
Kettle Point,-82.02,43.18
Kimmirut,-69.87,62.85
King City,-79.52,43.93
Kingsgate,-116.18,49.0
Kugaaruk,-89.83,68.53
La Scie,-55.61,49.96
Labelle,-74.73,46.28
Lake Country- District of,-119.4,50.03
Lavillette,-65.33,47.26
Lennox Island,-63.86,46.6
Lyn,-75.78,44.58
Manouane,-73.81,47.89
Marieval,-102.65,50.58
Marsh Lake,-134.33,60.51
Maskwacis,-113.46,52.83
Mayne,-123.3,48.85
Merlin,-82.23,42.24
Métabetchouan--Lac-à-la-Croix,-71.87,48.43
Micmac,-63.49,45.1
Milltown-Head of Bay D'Espoir,-55.74,47.93
Miminegash,-64.23,46.88
Mistawasis,-106.8,53.18
Monchy,-107.83,49.02
Monkland,-74.88,45.2
Montreal Lake,-105.77,54.05
Moose Creek,-74.97,45.26
Moreton's Harbour,-54.87,49.57
Mount Brydges,-81.5,42.91
Murraydale,-109.28,49.7
Muskeg River,-118.65,53.92
Nahanni Butte,-123.38,61.04
Nail Pond,-64.06,46.98
Nanisivik,-84.55,73.03
Naujaat,-86.25,66.53
Nelway,-117.28,49.0
Nemiscau,-76.25,51.7
Nestor Falls,-93.93,49.11
New Dundee,-80.54,43.35
New Hamburg,-80.71,43.38
Newmans Cove,-53.19,48.59
Notre Dame de Lourdes,-98.56,49.53
Old Crow,-139.84,67.57
Ootsa Lake,-126.05,53.8
Osnaburgh House,-90.27,51.14
Oyster Bed Bridge,-63.24,46.39
Pakenham,-76.29,45.33
Pakwaw Lake,-102.63,53.48
Panet,-70.08,46.58
Pangnirtung,-65.72,66.14
Parson,-116.63,51.07
Paulatuk,-124.07,69.35
Pelly Crossing,-136.57,62.82
Pendleton Bay,-125.71,54.52
Penny,-121.28,53.85
Petit Rocher,-65.72,47.78
Piccadilly Head,-58.93,48.59
Pikangikum,-93.99,51.81
Pine Falls,-96.2,50.57
Pine Lake,-113.48,52.11
Pink Mountain,-122.52,57.03
Pond Inlet,-77.96,72.7
Port Perry,-78.95,44.1
Puvirnituq,-77.28,60.03
Qikiqtarjuaq,-64.03,67.55
Quaqtaq,-69.62,61.03
Queens,-65.0,44.23
Quilchena,-120.5,50.17
Quirpon,-55.44,51.58
Rancheria,-130.6,60.09
Red Earth,-102.87,53.48
Regway,-104.57,49.0
Reliance,-109.16,62.71
Renews,-52.93,46.93
Rhone,-119.02,49.23
Roddickton,-56.11,50.85
Roosville,-115.05,49.0
Rosenhof,-107.57,50.22
Ross River,-132.45,61.98
Sachigo Lake,-92.17,53.87
Sachs Harbour,-125.25,71.99
Sacré-Coeur-Saguenay,-69.8,48.23
Saint-Boniface-de-Shawinigan,-72.82,46.5
Saint-Côme--Linière,-70.52,46.07
Sainte-Anne-des-Monts--Tourelle,-66.49,49.13
Sainte-Clotilde-de-Châteauguay,-73.68,45.16
Saint-Élie,-72.96,46.49
Sainte-Perpétue-de-L'Islet,-69.94,47.06
Saint-Lin--Laurentides,-73.76,45.85
Saint-Régis,-74.65,45.0
Saint-Sauveur-des-Monts,-74.17,45.9
Saint-Stanislas-de-Champlain,-72.39,46.61
Saint-Urbain-de-Charlevoix,-70.54,47.56
Salluit,-75.65,62.2
Sanikiluaq,-79.23,56.53
Saturna,-123.2,48.8
Scotland,-80.37,43.02
Seldom-Little Seldom,-54.19,49.62
Sharbot Lake,-76.69,44.77
Shilo,-99.64,49.81
Shulus,-120.85,50.13
Sop's Arm,-56.88,49.77
Spencerville,-75.54,44.84
St. André,-67.75,47.13
St. Andrew's,-59.27,47.78
St. Edward,-64.18,46.88
St. Jacobs,-80.55,43.53
St. Leonard,-67.93,47.16
Starblanket,-106.93,53.38
Stewart Crossing,-136.68,63.37
Stittsville,-75.92,45.26
Sunderland,-79.07,44.26
Sunnynook,-111.67,51.29
Swift River,-131.19,60.0
Sydenham,-76.6,44.41
Tagish,-134.27,60.31
Taloyoak,-93.52,69.54
Teslin,-132.72,60.17
Thorndale,-81.14,43.1
Tors Cove,-52.85,47.22
Trutch,-122.95,57.73
Tsiigehtchic,-133.74,67.44
Tuktoyaktuk,-133.04,69.45
Tulita,-125.58,64.9
Ulukhaktok,-117.77,70.74
Umingmaktok,-107.95,67.7
Upper Ferry,-59.25,47.84
Vernon Bridge,-62.88,46.18
Waglisla,-128.14,52.16
Walpole Island,-82.52,42.61
Wawa,-84.77,47.99
Weagamow Lake,-91.35,52.95
Wekweètì,-114.19,64.19
What??,-117.272778,63.14
Whitecap,-106.7,51.87
Whitedog,-94.93,50.13
Wild Horse,-110.22,49.0
Wrigley,-123.47,63.23
100 Mile House,-121.29,51.64
108 Mile Ranch,-121.35,51.75
70 Mile House,-121.4,51.3
Abbey,-108.75,50.73
Abbotsford,-122.32,49.05
Abercorn,-72.66,45.03
Abercrombie,-62.69,45.63
Aberdeen,-61.05,45.97
Aberfoyle,-80.14,43.47
Abernethy,-103.41,50.74
Acadia Valley,-110.2,51.15
Acadieville,-65.26,46.72
Acme,-113.5,51.49
Actinolite,-77.32,44.54
Acton,-66.95,45.74
Acton Vale,-72.56,45.65
Adams Lake,-119.68,50.96
Admiral,-108.01,49.71
Admirals Beach,-53.59,47.01
Advocate Harbour,-64.77,45.33
Ailsa Craig,-81.53,43.15
Airdrie,-114.01,51.29
Ajax,-79.03,43.85
Alameda,-102.28,49.26
Alban,-80.62,46.1
Albanel,-72.45,48.88
Alberta Beach,-114.35,53.67
Alberton,-64.06,46.81
Albertville,-67.36,48.31
Alcona,-79.54,44.31
Alder Flats,-114.95,52.93
Alder Point,-60.28,46.29
Aldergrove,-113.5,53.51
Aldouane,-65.05,46.62
Alert Bay,-126.92,50.58
Alexander,-100.29,49.83
Alexandria,-74.63,45.3
Alexis Creek,-123.28,52.08
Alfred,-74.88,45.55
Alida,-101.87,49.38
Alix,-113.17,52.39
Alkali Lake,-122.23,51.78
Allan,-77.47,44.61
Allardville,-65.49,47.47
Allenford,-81.17,44.53
Alliance,-111.78,52.43
Alliston,-79.86,44.15
Alma,-62.76,45.57
Almonte,-76.19,45.22
Alonsa,-98.97,50.79
Alsask,-109.99,51.37
Altario,-110.16,51.91
Altona,-79.19,43.97
Alvinston,-81.86,42.82
Amaranth,-80.23,43.97
Ameliasburg,-77.43,44.05
Amherst,-64.21,45.83
Amherstburg,-83.1,42.1
Amisk,-111.05,52.56
Amos,-78.11,48.56
Amqui,-67.43,48.46
Anahim Lake,-125.31,52.46
Anderson Road,-67.5,46.86
Andrew,-112.33,53.87
Ange-Gardien,-72.93,45.35
Anglemont,-119.16,50.96
Angliers,-79.23,47.55
Angusville,-101.02,50.73
Annaheim,-104.81,52.32
Annapolis Royal,-65.51,44.74
Anola,-96.63,49.88
Anse-Bleue,-65.08,47.82
Anten Mills,-79.82,44.48
Antigonish,-61.99,45.62
Antler,-101.45,49.56
Anzac,-111.03,56.44
Apohaqui,-65.59,45.69
Apsley,-78.08,44.75
Arborfield,-103.66,53.1
Arborg,-97.21,50.9
Archerwill,-103.86,52.43
Arcola,-102.49,49.63
Arden,-76.92,44.72
Ardmore,-110.48,54.33
Argenta,-116.91,50.16
Arichat,-61.01,45.51
Arkona,-81.82,43.08
Armagh,-70.58,46.75
Armstrong,-70.44,45.94
Arnold's Cove,-53.99,47.76
Arnprior,-76.35,45.43
Aroostook,-67.72,46.8
Arrowwood,-113.14,50.73
Arthur,-80.53,43.83
Arthurette,-67.48,46.79
Asbestos,-71.93,45.76
Ashcroft,-121.28,50.72
Ashern,-98.34,51.18
Ashmont,-111.56,54.12
Aspen,-62.05,45.3
Aspen Cove,-108.68,53.54
Asquith,-107.22,52.13
Assiniboia,-97.35,49.89
Assumption,-78.26,44.27
Astorville,-79.27,46.18
Athabasca,-113.28,54.71
Athens,-75.94,44.63
Atholville,-66.72,47.98
Atikokan,-91.62,48.75
Atlin,-133.7,59.56
Attawapiskat,-82.42,52.92
Aupaluk,-69.6,59.3
Aurora,-79.46,43.99
Austin,-72.28,45.18
Australian,-122.45,52.73
Avola,-119.31,51.78
Avonlea,-105.05,50.01
Avonmore,-113.45,53.5
Avonport,-64.25,45.1
Ayer's Cliff,-72.05,45.16
Aylesford,-64.83,45.02
Aylmer,-75.84,45.39
Aylsham,-103.8,53.19
Ayr,-80.45,43.28
Ayton,-80.92,44.05
Baddeck,-60.75,46.1
Badger,-56.04,48.97
Baie Verte,-56.19,49.9
Baie-Comeau,-68.15,49.21
Baie-des-Sables,-67.85,48.71
Baie-du-Febvre,-72.71,46.13
Baie-Johan-Beetz,-62.8,50.28
Baie-Saint-Paul,-70.5,47.45
Baie-Trinité,-67.3,49.41
Baker Lake,-96.02,64.31
Bala,-79.61,45.01
Balcarres,-103.54,50.8
Baldur,-99.24,49.38
Balfour,-116.96,49.62
Balgonie,-104.26,50.49
Balmoral,-66.47,47.96
Bamfield,-125.13,48.83
Bancroft,-77.86,45.06
Banff,-115.57,51.17
Bannockburn,-77.55,44.64
Barachois,-64.44,46.22
Barnesville,-65.73,45.44
Barnston,-71.88,45.1
Barnwell,-112.26,49.76
Barraute,-77.63,48.43
Barrhead,-114.4,54.12
Barrie,-79.67,44.37
Barrington,-65.56,43.56
Barrows,-101.44,52.82
Barry's Bay,-77.68,45.48
Barryville,-65.24,47.15
Bas-Caraquet,-64.83,47.8
Bashaw,-112.97,52.58
Bass River,-63.77,45.41
Bassano,-112.46,50.78
Batawa,-77.59,44.17
Batchawana Bay,-84.6,46.92
Bath,-67.59,46.51
Bathurst,-65.62,47.62
Battersea,-76.38,44.43
Battleford,-108.31,52.73
Bawlf,-112.46,52.91
Baxter,-79.83,44.24
Bay Bulls,-52.79,47.32
Bay de Verde,-52.88,48.1
Bay L'Argent,-54.88,47.54
Bay Roberts,-53.29,47.58
Bayfield,-61.74,45.63
Baynes Lake,-115.21,49.23
Bayside,-56.86,49.53
Baysville,-79.11,45.14
Beachburg,-76.85,45.73
Beachville,-80.82,43.09
Beamsville,-79.47,43.16
Bear Lake,-79.58,45.45
Beardmore,-87.95,49.6
Béarn,-79.33,47.28
Bearskin Lake,-90.95,53.89
Beaucanton,-79.23,49.03
Beauceville,-70.78,46.2
Beauharnois,-73.86,45.31
Beaulac-Garthby,-71.38,45.83
Beaumont,-64.57,45.88
Beausejour,-96.51,50.06
Beauval,-107.62,55.14
Beaver Creek,-106.66,51.97
Beaverdell,-119.08,49.43
Beaverlodge,-119.42,55.2
Bécancour,-72.43,46.33
Bedford,-63.66,44.72
Beechwood,-67.65,46.54
Beechy,-107.38,50.87
Bégin,-71.33,48.66
Beiseker,-113.53,51.38
Belgrave,-81.36,43.81
Bella Coola,-126.75,52.38
Belle River,-82.7,42.29
Belledune,-65.92,47.86
Belleisle Creek,-65.75,45.71
Belleoram,-55.41,47.52
Belleterre,-78.7,47.38
Belleville,-65.92,43.85
Belliveaus Cove,-66.06,44.38
Belmont,-64.07,45.04
Beloeil,-73.2,45.56
Belwood,-80.32,43.79
Bengough,-105.12,49.39
Benito,-101.54,51.91
Bentley,-114.05,52.46
Benton,-67.6,45.98
Berens River,-97.02,52.36
Beresford,-65.7,47.71
Berkeley,-80.72,44.36
Berthierville,-73.18,46.08
Bertrand,-65.07,47.74
Berwick,-64.73,45.04
Berwyn,-117.73,56.14
Bethany,-77.03,44.17
Bethune,-105.2,50.71
Bewdley,-78.32,44.08
Bezanson,-118.36,55.22
Bible Hill,-63.25,45.37
Biencourt,-68.6,47.93
Bienfait,-102.8,49.13
Big Bay,-80.94,44.79
Big Beaver,-105.17,49.09
Big Cove,-65.94,45.76
Big River,-65.66,47.57
Big Valley,-112.75,52.03
Biggar,-107.97,52.06
Binbrook,-79.8,43.12
Binscarth,-101.28,50.62
Birch Hills,-105.43,52.98
Birch Island,-81.77,46.06
Birch River,-101.1,52.39
Birchy Bay,-54.73,49.32
Birken,-122.61,50.48
Birtle,-101.04,50.42
Bishop's Falls,-55.48,49.02
Bishopton,-71.58,45.58
Bissett,-95.68,51.02
Bittern Lake,-113.05,53.0
Bjorkdale,-103.64,52.7
Black Diamond,-114.23,50.68
Blackfalds,-113.79,52.37
Blackfoot,-110.17,53.28
Blackie,-113.62,50.6
Blacks Harbour,-66.78,45.05
Blackville,-65.83,46.73
Blaine Lake,-106.88,52.82
Blainville,-73.88,45.66
Blairmore,-114.44,49.6
Blanc-Sablon,-57.13,51.41
Blenheim,-81.99,42.33
Blind Bay,-63.82,44.52
Blind River,-82.96,46.18
Bloodvein,-96.7,51.79
Bloomfield,-53.9,48.37
Blue Mountains,-80.4,44.47
Blue Ridge,-115.37,54.12
Blue River,-119.3,52.1
Blueberry Creek,-117.66,49.25
Bluesky,-118.23,56.07
Bluewater,-81.6,43.47
Bluffton,-114.29,52.74
Blumenort,-96.68,49.6
Blyth,-81.42,43.73
Bobcaygeon,-78.55,44.54
Bodo,-110.07,52.15
Boiestown,-66.41,46.45
Boissevain,-100.05,49.23
Bolton,-79.73,43.88
Bon Accord,-67.58,46.65
Bonaventure,-65.48,48.05
Bonfield,-79.14,46.23
Bonny River,-66.85,45.2
Bonnyville,-110.73,54.26
Borden,-79.89,44.28
Borden-Carleton,-63.67,46.26
Boston Bar,-121.43,49.86
Botha,-112.52,52.3
Bothwell,-81.87,42.63
Botwood,-55.37,49.13
Boucherville,-73.45,45.6
Bouchette,-75.96,46.21
Bouctouche,-64.74,46.46
Boutiliers Point,-63.94,44.66
Bow Island,-111.37,49.86
Bowden,-114.03,51.93
Bowmanville,-78.68,43.91
Bowsman,-101.2,52.23
Boyle,-79.41,43.01
Bracebridge,-79.19,45.02
Brackendale,-123.15,49.76
Bradford,-79.56,44.11
Bradford West Gwillimbury,-79.61,44.13
Braeside,-76.4,45.46
Bragg Creek,-114.56,50.95
Brampton,-79.76,43.68
Branch,-53.96,46.88
Brandon,-99.95,49.84
Brantford,-80.25,43.15
Brantville,-64.96,47.37
Brechin,-79.17,44.54
Bredenbury,-102.04,50.94
Breton,-114.47,53.1
Bridgetown,-65.29,44.84
Bridgewater,-64.51,44.37
Briercrest,-105.26,50.16
Brigden,-82.28,42.81
Brighton,-55.64,49.54
Brights Grove,-82.25,43.03
Brigus,-53.21,47.53
Brisco,-116.26,50.83
Bristol,-76.46,45.53
Britannia Beach,-123.2,49.62
Britt,-80.55,45.77
Broadview,-102.57,50.37
Brochet,-101.67,57.87
Brock,-79.1,44.28
Brocket,-113.74,49.54
Brockville,-75.68,44.59
Brokenhead Reserve,-96.62,50.37
Brome,-72.56,45.2
Bromont,-72.65,45.31
Brookdale,-64.16,45.8
Brookfield,-63.27,45.25
Brooklin,-78.95,43.95
Brooklyn,-53.86,48.38
Brooks,-111.89,50.56
Browns Flat,-66.13,45.47
Brownvale,-117.89,56.12
Bruce Mines,-83.79,46.3
Bruderheim,-112.92,53.79
Bruno,-105.52,52.26
Brussels,-81.25,43.74
Bryson,-73.93,45.14
Buchanan,-79.89,43.23
Buchans,-56.84,48.82
Buck Lake,-76.45,44.52
Buckingham,-75.4,45.58
Buffalo Narrows,-108.52,55.87
Buick,-121.27,56.75
Burdett,-111.53,49.83
Burford,-80.42,43.1
Burgeo,-57.62,47.61
Burin,-55.17,47.08
Burk's Falls,-79.4,45.62
Burlington,-56.01,49.75
Burnaby,-79.35,42.86
Burns Lake,-125.76,54.23
Burstall,-109.9,50.65
Burton,-66.44,45.86
Burtts Corner,-66.87,46.05
Bury,-71.5,45.46
Busby,-113.89,53.94
Cabano,-68.88,47.68
Cabri,-108.46,50.62
Cache Creek,-121.32,50.81
Cacouna,-69.5,47.91
Cadillac,-78.38,48.22
Cadomin,-117.32,53.02
Cadotte Lake,-116.38,56.46
Calabogie,-76.71,45.3
Calahoo,-113.95,53.71
Calder,-101.74,51.15
Caledon,-79.85,43.86
Caledon Village,-79.99,43.86
Caledonia,-65.03,44.37
Calgary,-114.05,51.04
Callander,-79.36,46.22
Calling Lake,-113.19,55.21
Calmar,-113.81,53.25
Cambray,-78.83,44.4
Cambridge,-64.09,45.2
Cambridge Bay,-105.05,69.11
Cambridge-Narrows,-65.96,45.81
Camden East,-76.83,44.33
Campbell River,-125.24,50.02
Campbellford,-77.79,44.3
Campbell's Bay,-76.6,45.73
Campbellton,-54.93,49.27
Camrose,-112.82,53.02
Canal Flats,-115.8,50.16
Candle Lake,-105.25,53.78
Cando,-108.23,52.38
Canmore,-115.36,51.08
Canning,-64.42,45.15
Canora,-102.43,51.63
Canso,-60.99,45.33
Canterbury,-67.46,45.89
Canton,-67.6,47.06
Canwood,-106.6,53.35
Cap-aux-Meules,-61.86,47.38
Cap-Chat,-66.68,49.1
Cap-de-la-Madeleine,-72.51,46.37
Cape Breton,-64.74,46.2
Cape Broyle,-52.94,47.09
Cape Croker,-81.02,44.92
Cape George,-61.92,45.83
Cape St. George,-59.18,48.49
Cape Tormentine,-63.78,46.12
Caplan,-65.68,48.1
Capreol,-80.91,46.7
Cap-Saint-Ignace,-70.46,47.03
Caramat,-86.12,49.61
Caraquet,-64.95,47.76
Carberry,-99.35,49.86
Carbon,-113.15,51.48
Carbonear,-53.23,47.73
Cardiff,-78.01,44.99
Cardinal,-75.38,44.79
Cardston,-113.3,49.2
Carievale,-101.62,49.17
Carleton Place,-76.14,45.13
Carleton-sur-Mer,-66.13,48.1
Carlisle,-67.38,46.34
Carlyle,-102.26,49.63
Carlyle Lake Resort,-102.26,49.75
Carman,-77.72,44.11
Carmangay,-113.11,50.12
Carmanville,-54.29,49.36
Carnduff,-101.79,49.17
Caroline,-114.74,52.09
Caronport,-105.81,50.45
Carp,-76.03,45.34
Carrot River,-103.58,53.28
Carseland,-113.46,50.85
Carsonville,-65.52,45.85
Carstairs,-114.09,51.56
Cartier,-81.55,46.7
Cartwright,-56.97,53.69
Casselman,-75.08,45.31
Castalia,-66.75,44.73
Castlegar,-117.66,49.32
Castor,-111.9,52.21
Causapscal,-67.23,48.36
Cawston,-119.76,49.18
Cayley,-113.84,50.44
Cayuga,-79.85,42.95
Cedar,-123.85,49.11
Cedar Croft,-79.71,45.64
Central Bedeque,-63.7,46.33
Central Butte,-106.5,50.79
Central Saanich,-123.42,48.59
Centreville,-65.6,43.47
Centreville-Wareham-Trinity,-53.92,49.0
Cereal,-110.8,51.41
Ceylon,-80.57,44.24
Chalk River,-77.45,46.01
Chamberlain,-79.9,47.85
Chambly,-73.29,45.44
Chambord,-72.06,48.43
Champion,-113.14,50.23
Champlain,-67.17,45.17
Chance Cove,-53.83,47.66
Chandler,-64.68,48.35
Channel-Port aux Basques,-59.13,47.59
Chapais,-74.85,49.78
Chapeau,-77.07,45.91
Chapel Arm,-53.66,47.5
Chapleau,-83.4,47.84
Chaplin,-62.84,45.2
Charlie Lake,-120.95,56.28
Charlo,-66.3,47.99
Charlottetown,-56.14,52.76
Charlton,-80.0,47.81
Chase,-119.68,50.81
Châteauguay,-73.75,45.38
Château-Richer,-71.01,46.96
Chatham,-65.46,47.03
Chatham-Kent,-82.12,42.43
Chatsworth,-80.89,44.45
Chauvin,-110.14,52.69
Chelmsford,-65.64,46.88
Chemainus,-123.71,48.91
Chepstow,-81.27,44.15
Cherhill,-114.67,53.81
Cherry Valley,-77.15,43.93
Cherryville,-118.61,50.24
Chesley,-81.09,44.29
Chester,-64.24,44.54
Chestermere,-113.81,51.03
Chesterville,-71.81,45.96
Chetwynd,-79.32,45.62
Chibougamau,-74.36,49.91
Chicoutimi,-71.06,48.41
Chilliwack,-121.95,49.16
Chipewyan Lake,-113.47,56.94
Chipman,-65.87,46.17
Chippawa Hill,-81.33,44.51
Chisasibi,-78.9,53.78
Chitek Lake,-107.72,53.75
Choiceland,-104.48,53.49
Chortitz,-97.97,49.13
Christian Island,-80.17,44.82
Christian Valley,-79.48,46.07
Christina Lake,-118.2,49.04
Christopher Lake,-105.78,53.53
Churchbridge,-101.89,50.89
Churchill,-79.6,44.25
Chute-aux-Outardes,-68.4,49.11
Clair,-68.6,47.25
Clairmont,-118.79,55.26
Claremont,-63.98,45.67
Clarence Creek,-75.21,45.5
Clarence-Rockland,-75.21,45.48
Clarenville,-54.05,48.18
Claresholm,-113.58,50.01
Clarington,-78.67,43.99
Clarke's Beach,-53.3,47.53
Clearwater,-99.03,49.13
Clermont,-70.23,47.68
Clifford,-80.97,43.96
Climax,-108.38,49.2
Clinton,-81.53,43.61
Clive,-113.44,52.47
Cloridorme,-64.83,49.18
Cloyne,-77.18,44.81
Clyde,-80.22,43.38
Clyde River,-63.26,46.22
Coal Harbour,-127.58,50.6
Coaldale,-112.61,49.72
Coalhurst,-112.92,49.74
Coaticook,-71.8,45.13
Cobalt,-79.68,47.39
Cobble Hill,-81.09,43.11
Cobden,-76.88,45.62
Coboconk,-78.79,44.65
Cobourg,-78.16,43.96
Cocagne,-64.61,46.33
Cochin,-108.33,53.07
Cochrane,-81.02,49.07
Coderre,-106.38,50.13
Codette,-104.03,53.28
Codroy,-59.39,47.88
Coe Hill,-77.83,44.86
Colborne,-80.31,42.86
Colchester,-82.93,41.98
Cold Lake,-101.11,55.12
Coldstream,-63.3,45.08
Coldwater,-79.64,44.7
Cole Bay,-108.32,55.09
Coleman,-79.75,47.36
Coleraine,-65.68,45.3
Coles Island,-64.32,45.89
Coleville,-109.24,51.7
Colinet,-53.54,47.21
Colinton,-113.25,54.62
Collette,-65.45,46.77
Collettville,-120.8,50.1
Collingwood,-80.24,44.5
Colombier,-68.85,48.86
Colonsay,-105.87,51.97
Combermere,-77.62,45.36
Come By Chance,-53.98,47.84
Comox,-124.92,49.67
Compton,-71.81,45.23
Conception Bay South,-52.99,47.49
Conche,-55.88,50.89
Congress,-106.02,49.75
Conklin,-111.07,55.63
Conn,-80.56,43.99
Conquest,-107.24,51.52
Consecon,-77.52,43.99
Consort,-110.77,52.0
Constance Bay,-76.07,45.48
Consul,-109.52,49.29
Contrecoeur,-73.23,45.85
Cook's Harbour,-55.86,51.6
Cookshire,-71.63,45.41
Cookstown,-79.7,44.19
Cooper Creek,-116.96,50.2
Coquitlam,-122.79,49.28
Coral Harbour,-83.16,64.13
Cormack,-57.38,49.31
Cormorant,-100.6,54.22
Corner Brook,-57.97,48.94
Corning,-102.97,49.95
Cornwall,-63.21,46.22
Coronach,-105.51,49.1
Coronation,-111.44,52.09
Corunna,-82.44,42.88
Cottam,-82.74,42.12
Courtenay,-124.99,49.68
Courtright,-82.46,42.81
Coutts,-111.95,49.0
Cow Head,-57.76,49.91
Cowan,-100.64,52.03
Cowansville,-72.75,45.2
Cowichan Bay,-123.61,48.73
Cowley,-114.07,49.57
Cox's Cove,-58.08,49.11
Crabtree,-73.46,45.96
Craik,-105.81,51.04
Cranberry Portage,-101.37,54.58
Cranbrook,-81.19,43.7
Crane River,-99.28,51.53
Crapaud,-63.49,46.23
Craven,-104.8,50.7
Crawford Bay,-116.81,49.68
Creelman,-103.31,49.82
Creemore,-80.1,44.32
Creighton,-79.59,44.61
Creignish,-61.45,45.73
Cremona,-114.49,51.54
Creston,-116.51,49.09
Croque,-55.82,51.05
Cross Lake,-77.92,45.41
Cross Roads Country Harbour,-61.88,45.27
Crossfield,-114.03,51.43
Crow Lake,-76.6,44.73
Crowsnest Pass,-114.5,49.58
Crysler,-75.15,45.21
Crystal Beach,-66.21,45.36
Crystal City,-98.94,49.14
Cudworth,-105.73,52.49
Cultus Lake,-121.96,49.06
Cumberland,-75.43,45.43
Cumberland Bay,-65.86,46.03
Cumberland House,-102.31,53.94
Cupar,-104.21,50.94
Cupids,-53.22,47.54
Curve Lake,-78.37,44.46
Cut Knife,-109.01,52.74
Cypress River,-99.08,49.55
Czar,-110.82,52.45
Dalhousie,-64.93,44.68
Dalmeny,-75.53,45.14
Danville,-72.01,45.78
Dartmouth,-63.57,44.67
Daulnay,-65.45,47.41
Dauphin,-100.04,51.14
Daveluyville,-72.13,46.2
Davidson,-76.76,45.86
Davis Inlet,-60.9,55.88
Dawson,-94.51,48.76
Dawson Creek,-120.23,55.76
Daysland,-112.25,52.86
Dealtown,-82.09,42.24
Dease Lake,-130.02,58.43
Debden,-106.87,53.52
Debec,-67.68,46.07
Debert,-63.45,45.43
DeBolt,-118.02,55.22
Decker Lake,-125.83,54.3
Deep Brook,-65.65,44.63
Deep River,-77.41,46.05
Deer Lake,-57.38,49.19
Deer Park,-79.41,43.67
Dégelis,-68.65,47.55
Delburne,-113.23,52.19
Delhi,-80.49,42.84
Delia,-112.37,51.63
Delisle,-71.62,48.6
Delmas,-108.6,52.92
Deloraine,-100.49,49.19
Deloro,-77.62,44.51
Delta,-76.12,44.6
Demorestville,-77.2,44.09
Denare Beach,-102.07,54.65
Denbigh,-77.27,45.13
Denman Island,-124.81,49.53
Denzil,-109.65,52.22
Derwent,-81.09,42.92
Desbarats,-83.92,46.34
Desbiens,-71.95,48.41
Deschaillons-sur-Saint-Laurent,-72.12,46.55
Deschambault,-71.92,46.65
Deschambault Lake,-103.36,54.91
Deseronto,-77.05,44.19
Deux-Rivières,-78.29,46.24
Devlin,-93.67,48.61
Devon,-63.4,44.91
Dewberry,-110.52,53.58
Didsbury,-114.13,51.65
Didyme,-72.66,48.9
Dieppe,-64.68,46.07
Digby,-65.75,44.62
Dilke,-105.25,50.86
Dillon,-80.32,45.42
Dinsmore,-107.44,51.33
Disraeli,-71.35,45.9
District of Katepwa,-103.63,50.7
Dixonville,-117.67,56.53
Dixville,-71.76,45.06
Doaktown,-66.11,46.56
Dodsland,-108.83,51.8
Dog Creek,-98.59,50.9
Dogwood Valley,-121.41,49.48
Dolbeau-Mistassini,-72.23,48.88
Dominion City,-97.15,49.14
Domremy,-105.73,52.78
Donald,-78.53,44.98
Donalda,-112.57,52.58
Donnacona,-71.72,46.67
Donnelly,-117.1,55.72
Dorchester,-64.51,45.89
Dore Lake,-107.4,54.62
Dorintosh,-108.62,54.35
Dorset,-78.89,45.24
Dosquet,-71.53,46.46
Douglas,-66.73,45.97
Douglas Lake,-120.2,50.16
Douglastown,-65.49,47.02
Dover,-53.95,48.88
Drake,-105.01,51.74
Drayton,-80.67,43.75
Drayton Valley,-114.98,53.22
Dresden,-82.18,42.59
Drinkwater,-105.13,50.29
Drumbo,-80.55,43.23
Drumheller,-112.71,51.46
Drummond,-67.68,47.03
Drummondville,-72.48,45.88
Dryden,-92.83,49.78
Dubreuilville,-84.57,48.33
Duchess,-111.9,50.73
Duck Bay,-100.14,52.17
Duck Lake,-106.22,52.81
Dunblane,-106.86,51.18
Duncan,-72.62,45.79
Dundalk,-80.39,44.17
Dundurn,-106.5,51.8
Dunham,-72.8,45.13
Dunmore,-61.91,45.52
Dunnottar,-96.94,50.45
Dunnville,-79.61,42.9
Dunsford,-78.64,44.45
Duparquet,-79.23,48.5
Dupuy,-79.35,48.83
Durham,-62.81,45.61
Durham-Sud,-72.33,45.66
Dutton,-81.5,42.66
Duval,-104.99,51.15
Dwight,-79.01,45.33
Dysart,-104.03,50.94
Eagle Lake,-78.5,45.12
Eagle River,-57.43,53.57
Earl Grey,-104.71,50.93
Earlton,-79.82,47.71
East Angus,-71.66,45.48
East Braintree,-95.62,49.61
East Broughton,-71.06,46.21
East Gwillimbury,-79.42,44.13
East Jeddore,-63.0,44.72
East Kemptville,-65.77,44.07
Eastend,-108.81,49.51
Eastern Passage,-63.47,44.61
Easterville,-99.81,53.1
Eastmain,-78.5,52.25
Eastman,-72.31,45.3
Eastport,-53.76,48.66
Eatonia,-109.38,51.22
Ebenezer,-79.66,43.77
Echo Bay,-84.06,46.48
Eckville,-114.36,52.36
Economy,-63.91,45.38
Ecum Secum,-62.13,44.96
Edam,-108.76,53.18
Edberg,-112.78,52.78
Eden Mills,-80.14,43.57
Edenwold,-104.25,50.63
Edgerton,-110.45,52.75
Edgewater,-116.13,50.69
Edgewood,-118.14,49.78
Edmonton,-113.49,53.53
Edmundston,-68.29,47.37
Edson,-116.43,53.58
Eel Ground,-65.62,46.96
Eel River Crossing,-66.42,48.01
Eganville,-77.09,45.54
Elbow,-106.59,51.12
Eldon,-79.01,44.5
Elfros,-103.86,51.74
Elgin,-62.67,45.42
Elie,-97.75,49.9
Elizabeth Metis Settlement,-110.08,54.11
Elk Lake,-80.33,47.73
Elk Point,-110.9,53.9
Elkford,-114.92,50.02
Elkhorn,-101.23,49.97
Elko,-115.11,49.3
Ellershouse,-64.0,44.94
Elliot Lake,-82.65,46.38
Elm Creek,-97.99,49.67
Elma,-75.23,45.01
Elmira,-80.56,43.59
Elmsdale,-63.5,44.96
Elmvale,-79.86,44.58
Elmwood,-64.62,44.58
Elnora,-113.2,51.99
Elora,-80.42,43.68
Elrose,-108.03,51.2
Embree,-55.04,49.3
Embro,-80.9,43.15
Embrun,-75.27,45.27
Emerson,-65.12,46.45
Emo,-93.83,48.63
Empress,-110.0,50.95
Emsdale,-79.31,45.52
Enchant,-112.42,50.17
Endeavour,-102.65,52.16
Enderby,-119.13,50.55
Enfield,-63.53,44.94
Englee,-56.07,50.76
Englefeld,-104.65,52.16
Englehart,-79.87,47.82
English Harbour East,-54.89,47.64
Ennismore,-78.43,44.4
Enterprise,-76.87,44.46
Erickson,-99.91,50.49
Erieau,-81.92,42.26
Eriksdale,-98.1,50.86
Erin,-80.06,43.76
Errington,-124.36,49.28
Erskine,-112.87,52.32
Espanola,-81.75,46.24
Esquimalt,-123.41,48.42
Essex,-82.81,42.17
Estaire,-80.79,46.31
Estcourt,-69.22,47.46
Esterhazy,-102.07,50.65
Estevan,-102.98,49.13
Eston,-108.75,51.14
Ethelbert,-100.39,51.52
Etzikom,-111.1,49.47
Eugenia,-80.51,44.31
Eureka,-62.68,45.49
Évain,-79.13,48.24
Evangeline,-64.69,46.23
Evansburg,-115.01,53.6
Everett,-67.31,47.05
Exeter,-81.48,43.35
Exshaw,-115.16,51.06
Eyebrow,-106.15,50.79
Fabre,-79.36,47.19
Fairisle,-65.12,47.27
Fairmont Hot Springs,-115.85,50.33
Fairview,-63.64,44.65
Falcon Lake,-95.32,49.68
Falher,-117.2,55.73
Falkland,-80.43,43.17
Fall River,-63.61,44.81
Falmouth,-64.16,44.99
False Bay,-124.34,49.49
Fanny Bay,-124.81,49.49
Farnham,-72.98,45.28
Fassett,-74.86,45.65
Fauquier,-82.03,49.31
Faust,-115.62,55.31
Fawcett,-114.09,54.54
Fenelon Falls,-78.73,44.53
Fenwick,-64.18,45.76
Fergus,-80.37,43.7
Ferintosh,-112.97,52.76
Ferme-Neuve,-75.45,46.7
Fermeuse,-52.97,46.97
Fermont,-67.08,52.78
Ferndale,-65.0,45.76
Fernie,-115.06,49.5
Ferryland,-52.9,47.03
Field,-80.02,46.52
Fife Lake,-105.73,49.19
Fillmore,-103.43,49.87
Finch,-75.08,45.14
Fingal,-81.31,42.71
Fisher Branch,-97.62,51.08
Fisher River Cree Nation,-97.36,51.43
Fitzroy Harbour,-76.21,45.47
Five Islands,-64.04,45.41
Flatrock,-52.73,47.7
Flaxcombe,-109.6,51.47
Flesherton,-80.55,44.26
Fleur de Lys,-56.15,50.13
Flin Flon,-101.86,54.76
Flinton,-77.21,44.69
Florence,-60.26,46.25
Flower's Cove,-56.72,51.29
Foam Lake,-103.53,51.64
Foleyet,-82.43,48.24
Fond-du-Lac,-107.2,59.31
Fonthill,-79.28,43.04
Fordwich,-81.03,43.87
Foremost,-111.44,49.47
Forest,-82.0,43.1
Forest Grove,-106.59,52.14
Forestburg,-112.06,52.58
Foresters Falls,-76.78,45.67
Forestville,-69.08,48.73
Formosa,-81.21,44.06
Fort Babine,-126.62,55.31
Fort Chipewyan,-111.15,58.71
Fort Erie,-79.02,42.92
Fort Frances,-93.39,48.61
Fort Fraser,-124.55,54.06
Fort Hope,-87.9,51.55
Fort Kent,-110.6,54.31
Fort Langley,-122.58,49.16
Fort MacKay,-111.59,57.18
Fort Macleod,-113.4,49.72
Fort Nelson,-122.69,58.8
Fort Qu'Appelle,-103.79,50.76
Fort San,-103.81,50.8
Fort Saskatchewan,-113.21,53.71
Fort Simpson,-121.35,61.86
Fort Smith,-111.88,60.0
Fort St. James,-124.25,54.44
Fort St. John,-120.84,56.25
Fort Vermilion,-116.01,58.39
Fort-Coulonge,-76.73,45.85
Forteau,-56.94,51.49
Fortierville,-72.03,46.48
Fortune,-55.86,47.04
Fosterville,-67.76,45.8
Four Falls,-67.73,46.82
Fox Creek,-64.69,46.05
Fox Harbour,-53.88,47.32
Fox Lake,-114.53,58.46
Fox Point,-64.05,44.61
Fox Valley,-109.48,50.46
Foxboro,-77.43,44.24
Foxwarren,-101.15,50.51
Foymount,-77.3,45.43
Frampton,-70.8,46.46
Francis,-103.86,50.1
Frankford,-77.59,44.2
Franktown,-76.05,45.04
Frankville,-61.52,45.65
Fraser Lake,-124.84,54.06
Fraserville,-64.67,45.38
Fredericton,-66.66,45.94
Fredericton Junction,-66.61,45.66
Freeport,-66.32,44.27
Frelighsburg,-72.83,45.05
French River,-62.42,45.57
Frenchman Butte,-109.63,53.59
Frobisher,-102.42,49.2
Frontier,-108.56,49.2
Fruitvale,-117.54,49.11
Fulford Harbour,-123.45,48.76
Gabarus,-60.14,45.83
Gadsby,-112.34,52.29
Gagetown,-66.16,45.77
Gainsborough,-101.44,49.17
Galahad,-111.93,52.51
Gallants,-58.23,48.7
Gambo,-54.21,48.79
Gananoque,-76.16,44.33
Gander,-54.58,48.95
Ganges,-123.5,48.85
Garden Bay,-124.03,49.63
Garden Creek,-66.7,45.96
Garden Hill,-78.4,44.05
Garden River,-84.16,46.54
Garden Village,-79.87,46.32
Gaspé,-64.48,48.83
Gatineau,-75.65,45.48
Gaultois,-55.91,47.61
Geary,-66.48,45.76
Genelle,-117.69,49.2
Gentilly,-72.27,46.4
Georgetown,-58.01,48.95
Georgina,-79.32,44.28
Gerald,-101.79,50.66
Geraldton,-86.95,49.71
Germansen Landing,-124.7,55.78
Gibbons,-113.32,53.82
Gibsons,-123.5,49.4
Gift Lake,-115.81,55.88
Gilbert Plains,-100.48,51.14
Gillam,-94.7,56.34
Gillies Bay,-124.48,49.68
Gimli,-96.99,50.63
Gingolx,-129.95,54.99
Girardville,-72.55,49.0
Girouxville,-117.33,55.75
Gitwinksihlkw,-129.22,55.19
Gladstone,-81.04,42.91
Glaslyn,-108.35,53.35
Glassville,-67.42,46.48
Gleichen,-113.05,50.86
Glen Ewen,-102.01,49.2
Glen Robertson,-74.5,45.35
Glenavon,-103.13,50.19
Glenboro,-99.29,49.55
Glencoe,-61.32,45.94
Glendon,-111.16,54.25
Glenella,-99.19,50.55
Glenwood,-54.88,48.98
Glovertown,-54.03,48.69
Godbout,-67.6,49.31
Goderich,-81.7,43.73
Gods Lake,-94.15,54.67
Gods Lake Narrows,-94.47,54.55
Gods River,-94.09,54.84
Gogama,-81.72,47.67
Gold River,-64.31,44.54
Golden,-116.96,51.29
Golden Lake,-77.24,45.58
Golden Prairie,-109.63,50.22
Gooderham,-78.37,44.9
Goodeve,-103.18,51.06
Goodsoil,-109.23,54.4
Goodwater,-103.7,49.39
Gore Bay,-82.46,45.91
Gorrie,-81.1,43.87
Goshen,-61.97,45.37
Goulais Bay,-84.42,46.72
Govan,-104.99,51.31
Gowganda,-80.77,47.64
Gracefield,-76.05,46.1
Grafton,-64.69,45.09
Granby,-72.73,45.4
Grand Bank,-55.75,47.08
Grand Bay-Westfield,-66.25,45.34
Grand Bend,-81.75,43.3
Grand Falls,-67.73,47.05
Grand Falls-Windsor,-55.66,48.96
Grand Forks,-118.43,49.03
Grand Harbour,-66.75,44.68
Grand Le Pierre,-54.8,47.77
Grand Rapids,-99.26,53.17
Grand Valley,-80.31,43.89
Grande Anse,-61.06,45.62
Grande Cache,-119.11,53.88
Grande Prairie,-118.79,55.17
Grande-Anse,-65.18,47.81
Grande-Digue,-64.56,46.29
Grande-Rivière,-64.5,48.4
Grande-Vallée,-65.13,49.21
Grandview,-79.05,45.19
Granisle,-126.2,54.88
Granton,-62.74,45.6
Granum,-113.5,49.87
Granville Lake,-100.56,56.23
Grassland,-112.68,54.82
Grassy Lake,-111.7,49.82
Grassy Narrows,-94.0,50.14
Gravelbourg,-106.55,49.87
Gravenhurst,-79.33,44.86
Gray,-104.44,50.17
Gray Rapids,-65.75,46.77
Grayson,-102.64,50.71
Great Village,-63.59,45.41
Greater Napanee,-76.96,44.23
Greater Sudbury,-81.06,46.57
Greely,-75.56,45.26
Green Lake,-77.11,45.66
Green Valley,-74.59,45.25
Greenfield,-64.84,44.27
Greenspond,-53.57,49.07
Greenstone,-87.28,49.76
Greenwood,-62.56,45.55
Grenfell,-79.79,44.36
Grenville,-74.6,45.63
Gretna,-76.98,44.19
Griffin,-72.16,45.05
Griffith,-77.16,45.24
Grimsby,-79.57,43.18
Grimshaw,-117.6,56.18
Grindrod,-119.11,50.63
Gronlid,-104.46,53.1
Gros-Morne,-65.54,49.25
Grosses-Roches,-67.16,48.93
Grouard Mission,-116.15,55.54
Grunthal,-96.85,49.4
Guelph,-80.22,43.53
Guigues,-79.43,47.46
Gull Lake,-108.48,50.09
Gunn,-114.34,53.72
Guy,-117.12,55.54
Guysborough,-61.49,45.39
Gypsumville,-98.63,51.76
Habay,-118.71,58.8
Hacketts Cove,-63.92,44.56
Hadashville,-95.9,49.67
Hafford,-107.35,52.72
Hagensborg,-126.55,52.38
Hagersville,-80.05,42.96
Hague,-106.41,52.51
Haileybury,-79.63,47.44
Halbrite,-103.55,49.48
Haliburton,-62.74,45.68
Halifax,-63.59,44.64
Halkirk,-112.15,52.28
Halton Hills,-79.95,43.62
Hamilton,-79.84,43.24
Hamiota,-100.59,50.18
Hammond,-75.24,45.44
Hammondvale,-65.5,45.57
Ham-Nord,-71.65,45.9
Hampden,-56.88,49.53
Hampstead,-66.08,45.62
Hampton,-65.34,44.9
Hanley,-106.44,51.62
Hanna,-111.92,51.64
Hanover,-81.02,44.15
Hant's Harbour,-53.27,47.99
Hantsport,-64.18,45.06
Hanwell,-66.8,45.85
Harbour Breton,-55.82,47.47
Harbour Grace,-53.25,47.67
Harcourt,-65.24,46.46
Hardisty,-111.3,52.67
Hardwood Ridge,-66.03,46.15
Hare Bay,-54.03,48.85
Harrington Harbour,-59.47,50.5
Harris,-79.59,47.54
Harrison Hot Springs,-121.78,49.29
Harrison Mills,-121.95,49.25
Harriston,-64.47,44.77
Harrogate,-116.45,50.98
Harrow,-82.91,42.03
Harrowsmith,-76.66,44.4
Hartland,-67.5,46.29
Hartney,-100.52,49.48
Harty,-82.68,49.47
Harvey,-64.71,45.72
Harwood,-78.18,44.14
Hastings,-64.85,44.64
Hatley,-71.95,45.26
Hatzic,-122.25,49.15
Haute-Aboujagane,-64.39,46.14
Havelock,-65.92,44.3
Havre Boucher,-61.53,45.68
Havre-Saint-Pierre,-63.6,50.23
Hawk Junction,-84.56,48.08
Hawke's Bay,-57.18,50.61
Hawkesbury,-74.6,45.6
Hay Lakes,-113.05,53.19
Hay River,-115.78,60.8
Hays,-111.79,50.09
Hazelton,-66.13,46.57
Hazlet,-108.59,50.39
Hearst,-83.65,49.68
Heart's Content,-53.35,47.84
Hébertville,-71.68,48.4
Hedley,-120.06,49.35
Heinsburg,-110.52,53.76
Heisler,-112.22,52.66
Hemlo,-85.98,48.68
Hemmingford,-73.58,45.08
Henryville,-73.18,45.13
Hensall,-81.5,43.43
Hepburn,-106.73,52.52
Hepworth,-81.13,44.63
Herbert,-107.22,50.42
Heriot Bay,-125.21,50.1
Heron Bay,-86.28,48.66
Herring Cove,-63.56,44.57
Hiawatha,-78.2,44.17
Hickman's Harbour,-53.74,48.1
High Level,-117.12,58.51
High Prairie,-116.49,55.43
High River,-113.87,50.57
Highgate,-81.81,42.5
Hilda,-110.03,50.47
Hilden,-63.29,45.3
Hill Spring,-113.62,49.29
Hillsborough,-64.64,45.92
Hillsburgh,-80.14,43.79
Hillside,-62.64,45.62
Hillsport,-85.54,49.45
Hilton Beach,-83.89,46.25
Hines Creek,-118.6,56.24
Hinton,-117.56,53.41
Hitchcock,-103.12,49.22
Hixon,-122.58,53.41
Hodgeville,-106.96,50.11
Hodgson,-97.57,51.21
Holden,-112.23,53.23
Holdfast,-105.42,50.95
Holland,-75.94,44.41
Holland Centre,-80.79,44.39
Hollow Water,-96.3,51.19
Holstein,-80.75,44.05
Holtville,-66.47,46.51
Holyrood,-53.15,47.34
Honey Harbour,-79.81,44.86
Honeymoon Bay,-124.16,48.81
Honeywood,-80.18,44.22
Hope,-65.2,48.05
Hopedale,-60.23,55.46
Hopewell,-62.7,45.47
Hopewell Cape,-64.57,45.84
Hornby Island,-124.63,49.51
Hornepayne,-84.78,49.25
Horning's Mills,-80.2,44.15
Horsefly,-121.41,52.33
Horseshoe Valley,-79.67,44.55
Hosmer,-114.95,49.58
Houston,-126.64,54.39
Howick,-73.85,45.18
Howley,-57.09,49.15
Hoyt,-66.55,45.58
Huberdeau,-74.63,45.96
Hudson,-74.15,45.45
Hudson Bay,-102.37,52.84
Hudson's Hope,-121.91,56.02
Hughenden,-110.96,52.51
Hull,-75.74,45.44
Humber Arm South,-58.16,49.01
Humboldt,-105.12,52.2
Hunter River,-63.34,46.35
Huntingdon,-74.16,45.08
Hunts Point,-64.77,43.95
Huntsville,-79.27,45.31
Hurkett,-88.48,48.84
Huron East,-81.28,43.62
Huron Park,-81.48,43.28
Hussar,-112.68,51.04
Hyas,-102.26,51.89
Hymers,-89.7,48.3
Hythe,-119.55,55.32
Ignace,-91.65,49.41
Île-à-la-Crosse,-107.91,55.47
Ilford,-95.6,56.06
Imperial,-105.44,51.34
Indian Head,-103.66,50.53
Indian River,-78.14,44.34
Ingersoll,-80.87,43.04
Ingleside,-66.19,45.32
Inglis,-101.25,50.94
Ingonish,-60.36,46.69
Ingonish Beach,-60.4,46.63
Inkerman,-63.4,46.36
Innerkip,-80.69,43.2
Innisfail,-113.95,52.02
Innisfil,-79.61,44.27
Innisfree,-111.53,53.38
Inukjuak,-78.1,58.45
Inuvik,-133.72,68.36
Inverary,-76.47,44.38
Invermay,-81.14,44.46
Invermere,-116.03,50.5
Inverness,-61.3,46.23
Inwood,-97.49,50.5
Ipperwash Beach,-81.97,43.2
Iqaluit,-68.51,63.75
Irma,-111.22,52.91
Iron Bridge,-83.22,46.28
Iroquois,-68.26,47.36
Iroquois Falls,-80.68,48.76
Irricana,-113.6,51.32
Islay,-78.85,44.46
Isle aux Morts,-58.96,47.59
Ituna,-103.49,51.16
Jackson's Arm,-56.8,49.86
Jacksonville,-67.6,46.19
Jacquet River,-66.0,47.91
Jaffray,-115.3,49.38
Janetville,-78.72,44.21
Jans Bay,-108.1,55.14
Jansen,-104.71,51.78
Jarvie,-113.98,54.45
Jarvis,-80.11,42.88
Jasper,-75.93,44.83
Jellicoe,-87.52,49.68
Jemseg,-66.11,45.83
Joffre,-113.53,52.33
Joggins,-64.44,45.69
Jogues,-72.82,45.48
Johnstown,-60.73,45.8
Johnville,-67.54,46.57
Joliette,-73.45,46.01
Jonquière,-71.24,48.41
Jordan Falls,-65.23,43.81
Joussard,-115.95,55.39
Judique,-61.49,45.87
Juniper,-67.22,46.55
Kagawong,-82.25,45.9
Kakabeka Falls,-89.61,48.4
Kaladar,-77.12,44.64
Kaleden,-119.6,49.4
Kaministiquia,-89.59,48.53
Kamloops,-120.33,50.67
Kamouraska,-69.86,47.56
Kamsack,-101.89,51.56
Kanata,-75.9,45.32
Kangiqsualujjuaq,-65.95,58.68
Kapuskasing,-82.41,49.41
Karalash Corners,-84.35,46.77
Kars,-65.98,45.6
Kashabowie,-90.44,48.65
Kaslo,-116.9,49.91
Kawartha Lakes,-78.83,44.58
Kearney,-79.11,45.62
Kedgwick,-67.34,47.64
Keene,-78.16,44.24
Kelliher,-103.74,51.26
Kelly,-65.13,48.11
Kelly Lake,-120.03,55.25
Kelowna,-119.49,49.88
Kelvington,-103.52,52.16
Kemano,-127.95,53.56
Kemptown,-63.07,45.46
Kemptville,-65.84,44.03
Kenaston,-106.27,51.5
Kennedy,-102.35,50.01
Kennetcook,-63.72,45.17
Kenora,-94.5,49.76
Kenosee Lake,-102.28,49.83
Kensington,-63.63,46.43
Kent,-80.59,44.59
Kenton,-100.61,49.98
Kentville,-64.49,45.07
Kenville,-101.32,52.0
Keremeos,-119.82,49.2
Kerrobert,-109.14,51.92
Kersley,-122.41,52.81
Keswick,-66.82,45.99
Keswick Ridge,-66.88,45.99
Kikino,-112.09,54.44
Kilburn,-67.7,46.63
Killaloe,-77.4,45.56
Killam,-111.85,52.78
Killarney,-63.69,44.72
Kimberley,-115.98,49.68
Kincaid,-107.0,49.66
Kincardine,-67.65,46.63
Kindersley,-109.15,51.46
Kingfisher,-118.73,50.61
Kingfisher Lake,-89.81,53.03
King's Cove,-53.37,48.55
King's Point,-56.2,49.58
Kingsey Falls,-72.06,45.85
Kingston,-53.11,47.82
Kingsville,-61.31,45.78
Kinistino,-105.02,52.95
Kinkora,-63.6,46.32
Kinmount,-78.65,44.78
Kinsella,-111.52,53.0
Kinuso,-115.43,55.33
Kipawa,-78.98,46.78
Kipling,-80.2,46.49
Kippens,-58.63,48.55
Kirkland Lake,-80.03,48.15
Kisbey,-102.67,49.64
Kispiox,-127.69,55.35
Kitamaat Village,-128.64,53.98
Kitchener,-80.47,43.41
Kitchenuhmaykoosib,-89.88,53.82
Kitimat,-128.65,54.05
Kitscoty,-110.33,53.34
Kitseguecla,-127.83,55.08
Kitwanga,-128.06,55.1
Kleefeld,-96.87,49.5
Kleinburg,-79.62,43.84
Knoxford,-67.74,46.51
Krestova,-117.59,49.44
Kronau,-104.29,50.3
Kugluktuk,-115.09,67.82
Kuujjuaq,-68.4,58.1
Kuujjuarapik,-77.75,55.28
Kyle,-108.03,50.83
La Baie,-61.87,47.23
La Broquerie,-96.49,49.51
La Corne,-78.0,48.35
La Crête,-116.41,58.18
La Doré,-72.65,48.71
La Durantaye,-70.85,46.83
La Glace,-119.15,55.4
La Guadeloupe,-70.93,45.95
La Loche,-109.39,56.48
La Malbaie,-70.15,47.65
La Patrie,-71.25,45.4
La Pocatière,-70.03,47.37
La Prairie,-60.96,46.64
La Reine,-79.5,48.86
La Rivière,-98.67,49.23
La Romaine,-60.67,50.21
La Ronge,-105.29,55.11
La Salle,-79.82,43.31
La Sarre,-79.2,48.8
La Tabatière,-58.96,50.82
La Tuque,-72.78,47.43
Labrador City,-66.93,52.96
Lac Baker,-68.64,47.33
Lac Brochet,-101.48,58.62
Lac du Bonnet,-96.06,50.25
Lac La Biche,-111.97,54.77
Lac la Hache,-121.46,51.81
Lac-au-Saumon,-67.35,48.41
Lac-Bouchette,-72.18,48.25
Lac-Brome,-72.51,45.21
Lac-Carré,-74.47,46.13
Lac-des-Aigles,-68.68,47.98
Lac-des-Loups,-76.21,45.68
Lac-Drolet,-70.85,45.71
Lac-Etchemin,-70.5,46.4
Lac-Humqui,-67.58,48.3
Lachute,-74.33,45.65
Lac-Mégantic,-70.88,45.58
Lacolle,-73.36,45.08
Lacombe,-113.73,52.46
Ladner,-123.07,49.09
Ladysmith,-76.38,45.76
Lafleche,-106.57,49.7
Laidlaw,-121.6,49.31
Laird,-84.05,46.39
Lake Alma,-104.19,49.14
Lake Cowichan,-124.05,48.82
Lake Echo,-63.38,44.73
Lake Errock,-122.01,49.21
Lake Lenore,-104.98,52.39
Lake St. Martin,-98.41,51.74
Lake St. Peter,-78.02,45.31
Lakefield,-74.25,45.75
Lakelse Lake,-128.55,54.36
Lakeshore,-82.68,42.24
Lakeview Heights,-74.85,45.03
Lakeville,-64.6,45.1
Lamaline,-55.76,46.9
Lambton,-71.08,45.83
Lambton Shores,-81.89,43.17
Lamèque,-64.62,47.81
Lamont,-112.78,53.75
Lampman,-102.75,49.38
Lanark,-61.94,45.65
Lancaster,-74.5,45.14
Landis,-108.45,52.19
Landmark,-96.82,49.67
Landrienne,-77.95,48.55
Lang,-78.17,44.27
Lang Bay,-124.35,49.78
Langdon,-84.09,48.97
Langenburg,-101.7,50.84
Langford,-80.13,43.17
Langham,-106.95,52.35
Langley,-122.65,49.1
Langton,-80.57,42.74
Lanigan,-105.02,51.84
L'Annonciation,-74.86,46.4
Lanoraie,-73.22,45.96
Lansdowne,-65.71,44.58
Lansdowne House,-87.88,52.22
L'Anse-au-Loup,-55.67,47.08
Lantz,-63.48,44.98
Lantzville,-124.07,49.25
Lappe,-89.35,48.57
Larder Lake,-79.71,48.09
L'Ardoise,-60.76,45.61
Lark Harbour,-58.39,49.1
LaSalle,-73.62,45.43
L'Ascension,-71.67,48.69
Lashburn,-109.61,53.12
L'Assomption,-73.41,45.83
Latchford,-79.81,47.32
Laterrière,-71.11,48.3
Laurentian Hills,-80.49,43.42
Laurier,-99.56,50.88
Laurier-Station,-71.63,46.53
Laurierville,-71.65,46.3
Laval,-73.75,45.58
Lavaltrie,-73.28,45.88
L'Avenir,-72.3,45.76
Lawn,-55.53,46.93
Lawrence Station,-67.17,45.42
Lawrencetown,-63.39,44.67
Lawrenceville,-72.35,45.41
Lax Kw'alaams,-130.43,54.55
Laxgalts'ap,-129.57,55.03
Lazo,-124.9,49.71
Le Bic,-68.69,48.37
Le Goulet,-64.69,47.7
Leader,-109.54,50.88
Leading Tickles,-55.42,49.48
Leaf Rapids,-99.75,56.46
Leamington,-64.09,45.6
Leask,-106.74,53.02
Leaskdale,-79.16,44.2
Lebel-sur-Quévillon,-76.98,49.05
Leduc,-113.54,53.26
Lefaivre,-74.89,45.63
Legal,-113.59,53.94
Lemberg,-103.2,50.73
Lennoxville,-71.86,45.36
Leoville,-107.55,53.63
Lepreau,-66.46,45.17
Leroy,-104.73,52.0
Les Éboulements,-70.31,47.48
Les Escoumins,-69.4,48.35
Les Étroits,-68.89,47.38
Les Hauteurs-de-Rimouski,-68.11,48.37
Les Méchins,-66.98,49.0
Leslieville,-114.6,52.38
Lestock,-103.98,51.31
Lethbridge,-53.86,48.36
Lévis,-71.18,46.8
Lewin's Cove,-55.21,47.08
Lewisporte,-55.04,49.24
Likely,-121.55,52.61
Lillooet,-121.93,50.69
Limerick,-67.33,47.56
Limoges,-75.25,45.33
Lincoln,-66.58,45.9
Linden,-63.82,45.87
Lindsay,-78.74,44.35
Lintlaw,-103.24,52.06
Linwood,-61.57,45.65
Lions Bay,-123.23,49.45
Lion's Head,-81.25,44.98
Lipton,-103.84,50.9
Lisle,-79.97,44.26
L'Islet,-70.35,47.1
L'Islet-sur-Mer,-70.37,47.12
L'Isle-Verte,-69.33,48.01
Listowel,-80.95,43.73
Little Black River,-96.31,50.82
Little Britain,-78.86,44.28
Little Current,-81.92,45.97
Little Fort,-120.2,51.41
Little Grand Rapids,-95.46,52.03
Little Smoky,-117.17,54.73
Livelong,-108.7,53.44
Liverpool,-64.71,44.03
Lloydminster,-109.98,53.27
Lockeport,-65.11,43.69
Lockport,-96.94,50.08
Lodgepole,-115.31,53.1
Logan Lake,-120.81,50.49
Lomond,-112.64,50.34
London,-81.23,42.96
Londonderry,-63.6,45.47
Lone Butte,-121.2,51.55
Long Plain,-98.47,49.84
Long Point,-61.48,45.81
Long Sault,-74.89,45.03
Longlac,-86.53,49.77
Longue-Pointe-de-Mingan,-64.15,50.26
Longueuil,-73.51,45.53
Longview,-114.23,50.53
Loon Lake,-62.74,45.25
Lords Cove,-66.95,45.0
Lord's Cove,-55.65,46.89
Loreburn,-106.59,51.23
L'Orignal,-74.68,45.61
Loring,-79.99,45.93
Lorne,-62.7,45.42
Lotbinière,-71.93,46.61
Lougheed,-111.54,52.74
Louisdale,-61.06,45.6
Louiseville,-72.95,46.25
Lourdes,-59.0,48.64
Louvicourt,-77.38,48.06
Love,-104.16,53.48
Low,-75.95,45.81
Lower Argyle,-65.83,43.72
Lower Brighton,-67.49,46.24
Lower Post,-128.5,59.93
Lower Sackville,-63.67,44.76
Lower West Pubnico,-65.8,43.63
Lower Windsor,-67.42,46.35
Lucan,-81.4,43.18
Luceville,-68.34,48.52
Lucknow,-81.51,43.96
Lucky Lake,-107.13,50.98
Lumby,-118.96,50.25
Lumsden,-53.59,49.28
Lund,-124.76,49.96
Lundar,-98.03,50.69
Lundbreck,-114.16,49.58
Lunenburg,-64.3,44.37
Luseland,-109.38,52.07
Luskville,-76.01,45.53
Lyndhurst,-76.12,44.54
Lynn Lake,-101.07,56.82
Lyster,-71.61,46.36
Lytton,-121.58,50.23
Maberly,-53.01,48.61
Mabou,-61.39,46.07
Macamic,-79.0,48.75
Maccan,-64.25,45.72
Macdiarmid,-88.12,49.43
Macdowall,-106.01,53.01
Maces Bay,-66.47,45.09
MacGregor,-98.77,49.96
Mackenzie,-123.09,55.32
Macklin,-109.93,52.33
Macoun,-103.26,49.31
Macrorie,-107.08,51.32
MacTier,-79.77,45.13
Madawaska,-77.99,45.5
Madeleine-Centre,-65.35,49.24
Madoc,-79.74,43.7
Madran,-65.77,47.81
Magnetawan,-79.64,45.66
Magog,-72.15,45.26
Magrath,-112.86,49.4
Mahone Bay,-64.37,44.44
Maidstone,-58.87,48.2
Main Brook,-55.98,51.16
Maisonnette,-65.02,47.82
Maitland,-64.45,44.42
Major,-109.61,51.87
Makwa,-108.9,54.0
Malakwa,-118.8,50.93
Malartic,-78.13,48.13
Maliseet,-67.7,46.77
Mallaig,-111.36,54.21
Mallard,-99.55,51.95
Mallorytown,-75.87,44.47
Ma-Me-O Beach,-113.96,52.97
Manigotagan,-96.3,51.1
Manilla,-78.98,44.3
Manitou,-98.53,49.24
Manitouwadge,-85.83,49.12
Manitowaning,-81.8,45.74
Maniwaki,-75.96,46.38
Mankota,-107.07,49.42
Manners Sutton,-67.03,45.68
Manning,-117.62,56.92
Mannville,-111.17,53.34
Manor,-102.08,49.6
Manotick,-75.68,45.22
Manseau,-72.0,46.36
Mansons Landing,-124.98,50.06
Mansonville,-72.39,45.05
Manyberries,-110.69,49.4
Maple Creek,-109.47,49.9
Maple Ridge,-67.21,46.09
Mara,-119.06,50.68
Marathon,-86.38,48.71
Marbleton,-71.58,45.61
Marcelin,-106.79,52.92
Margaree Forks,-61.09,46.33
Margaretsville,-65.06,45.04
Margo,-66.01,44.32
Maria,-65.98,48.16
Mariapolis,-98.98,49.36
Marieville,-73.16,45.43
Marion Bridge,-60.21,45.98
Marionville,-75.35,45.18
Markdale,-80.64,44.31
Markham,-79.26,43.87
Markstay,-80.54,46.49
Markstay-Warren,-80.48,46.49
Marktosis,-126.05,49.28
Marlbank,-77.09,44.43
Marlboro,-116.79,53.55
Marmora,-77.68,44.48
Marsden,-109.82,52.84
Marshall,-109.77,53.19
Marsoui,-66.06,49.21
Martensville,-106.65,52.29
Martins River,-64.33,44.48
Martintown,-74.71,45.15
Marwayne,-110.33,53.51
Maryfield,-101.52,49.83
Mary's Harbour,-55.83,52.31
Marystown,-55.16,47.15
Marysville,-66.59,45.97
Maskinongé,-73.01,46.23
Masset,-132.14,54.01
Massey,-82.07,46.21
Masson-Angers,-75.41,45.54
Massueville,-72.93,45.91
Matachewan,-80.64,47.93
Matagami,-77.63,49.75
Matane,-67.53,48.85
Matapédia,-66.95,47.96
Matheson,-80.46,48.53
Matheson Island,-96.92,51.74
Mattawa,-78.7,46.31
Mattice,-83.26,49.61
Maugerville,-66.44,45.87
Mavillette,-66.18,44.11
Maxville,-74.85,45.28
Maxwell,-67.7,45.9
Mayerthorpe,-115.13,53.95
Maymont,-107.7,52.56
Maynooth,-77.93,45.23
Mayo,-75.35,45.66
Mazenod,-106.21,49.86
McAdam,-67.3,45.59
McAuley,-101.38,50.26
McBride,-120.16,53.3
McCreary,-99.49,50.77
McGregor,-82.96,42.14
McKendrick,-66.67,47.92
McLean,-76.84,44.65
McLennan,-116.9,55.7
McLeod Lake,-123.03,54.98
McLeods,-66.57,48.01
McLure,-120.23,51.05
Meadow Creek,-116.98,50.23
Meadow Lake,-108.43,54.12
Meadows,-58.04,48.99
Meaford,-80.59,44.6
Meath Park,-105.36,53.44
Medford,-64.36,45.17
Medicine Hat,-110.67,50.04
Medstead,-108.07,53.29
Meductic,-67.5,45.98
Melbourne,-66.05,43.78
Melfort,-104.6,52.85
Melita,-100.99,49.26
Melville,-63.02,45.78
Memramcook,-64.55,46.0
Meota,-108.46,53.03
Merigomish,-62.43,45.63
Merrickville,-75.83,44.91
Merrickville-Wolford,-75.82,44.85
Merritt,-120.78,50.11
Merville,-125.05,49.78
Mervin,-108.87,53.33
Metcalfe,-75.47,45.23
Meteghan,-66.16,44.18
Métis-sur-Mer,-68.0,48.66
Miami,-98.24,49.37
Michipicoten River,-84.82,47.93
Midale,-103.41,49.39
Middle Arm,-53.2,47.43
Middle Lake,-105.3,52.48
Middle Musquodoboit,-63.14,45.04
Middleton,-65.06,44.94
Middleville,-76.39,45.09
Middlewood,-64.57,44.22
Midhurst,-79.72,44.44
Midland,-65.78,45.65
Midway,-64.76,45.68
Milden,-107.52,51.48
Mildmay,-81.11,44.03
Milestone,-104.51,49.99
Milford Bay,-79.47,45.07
Milk River,-112.08,49.15
Mill Bay,-129.88,54.98
Mill Cove,-64.06,44.59
Millbrook,-62.81,45.5
Millerton,-65.63,46.9
Millertown,-56.54,48.81
Millet,-113.47,53.09
Millville,-59.34,47.85
Milo,-112.88,50.57
Milton,-64.75,44.05
Miltonvale Park,-63.22,46.31
Milverton,-80.92,43.56
Minaki,-94.66,49.98
Mindemoya,-82.16,45.73
Minden,-78.72,44.92
Mingan,-64.01,50.29
Ming's Bight,-56.04,49.97
Miniota,-101.03,50.14
Minitonas,-101.03,52.08
Minnedosa,-99.84,50.24
Minto,-66.07,46.07
Minton,-71.98,45.29
Mirabel,-74.08,45.65
Miramichi,-65.17,47.03
Mirror,-113.1,52.46
Miscou Centre,-64.56,47.94
Miscouche,-63.86,46.43
Missanabie,-84.08,48.31
Missinipe,-104.78,55.6
Mission,-114.06,51.01
Mississauga,-79.65,43.58
Mistassini,-72.23,48.88
Mistatim,-103.36,52.87
Mitchell,-81.19,43.46
Moberly Lake,-121.73,55.83
Moisie,-66.08,50.19
Monarch,-113.1,49.8
Monastery,-61.61,45.6
Moncton,-64.79,46.09
Monkton,-81.08,43.58
Mono,-80.05,44.01
Montague,-62.65,46.16
Monte Creek,-119.95,50.64
Monte Lake,-119.83,50.53
Montebello,-74.93,45.65
Mont-Joli,-68.18,48.58
Mont-Laurier,-75.5,46.55
Mont-Louis,-65.73,49.22
Montmagny,-70.55,46.98
Montmartre,-103.45,50.22
Montréal,-73.65,45.51
Montreal River Harbour,-84.64,47.24
Montrose,-63.7,45.42
Mont-Saint-Michel,-75.33,46.78
Mont-Tremblant,-74.6,46.11
Moonbeam,-82.17,49.36
Moorefield,-65.47,47.04
Moores Mills,-67.27,45.29
Moose Factory,-80.6,51.25
Moose Jaw,-105.55,50.39
Moose Lake,-95.3,49.2
Moosehorn,-98.42,51.29
Moosomin,-101.67,50.14
Moosonee,-80.64,51.27
Morden,-98.1,49.19
Morell,-62.7,46.41
Morinville,-113.64,53.8
Morley,-80.73,44.66
Morpeth,-81.84,42.39
Morrin,-112.76,51.66
Morris,-97.36,49.35
Morrisburg,-75.18,44.89
Morriston,-80.11,43.44
Morse,-107.03,50.41
Moser River,-62.25,44.96
Mossbank,-105.96,49.93
Moulin-Morneault,-68.35,47.45
Mount Albert,-79.3,44.13
Mount Elgin,-80.79,42.95
Mount Forest,-80.73,43.98
Mount Hope,-66.5,46.05
Mount Pearl,-52.81,47.51
Mount Pleasant,-64.7,44.03
Mount Stewart,-62.87,46.36
Mount Uniacke,-63.82,44.89
Mountain View,-77.47,46.06
Moyie,-115.83,49.3
Muenster,-104.99,52.19
Mulgrave,-61.39,45.61
Mulhurst,-113.99,53.05
Mundare,-112.34,53.59
Munson,-112.73,51.56
Munster,-75.93,45.16
Murdochville,-65.5,48.96
Murray Harbour,-62.52,46.0
Murray River,-62.61,46.01
Musgrave Harbour,-53.96,49.41
Musgravetown,-53.89,48.41
Mushaboom,-62.53,44.85
Muskrat Dam,-91.76,53.4
Musquodoboit Harbour,-63.14,44.78
Mutton Bay,-59.02,50.77
Myrnam,-111.23,53.66
Nackawic,-67.22,45.99
Naicam,-104.49,52.41
Nain,-61.71,56.53
Nairn Centre,-81.58,46.33
Nakina,-86.7,50.17
Nakusp,-117.79,50.23
Nampa,-117.13,56.03
Namur,-74.93,45.9
Nanaimo,-123.93,49.16
Nanoose Bay,-124.2,49.26
Nanticoke,-80.07,42.8
Nanton,-113.76,50.35
Napadogan,-66.93,46.41
Napanee,-76.95,44.24
Napierville,-73.4,45.18
Napinka,-100.84,49.32
Nappan,-64.23,45.76
Naramata,-119.58,49.6
Nash Creek,-66.07,47.92
Nashwaak Bridge,-66.6,46.24
Natashquan,-61.81,50.18
Nauwigewauk,-65.89,45.47
Nédélec,-79.43,47.68
Neepawa,-99.46,50.22
Neerlandia,-114.37,54.31
Neguac,-65.08,47.24
Neilburg,-109.62,52.83
Nelson,-79.83,43.37
Nelson House,-98.88,55.78
Neuanlage,-106.46,52.45
Neudorf,-103.01,50.7
Neustadt,-81.0,44.07
Neville,-107.62,49.96
New Aiyansh,-129.07,55.2
New Bandon,-66.27,46.49
New Brigden,-110.49,51.7
New Carlisle,-65.33,48.01
New Denver,-117.37,49.99
New Germany,-64.72,44.54
New Glasgow,-62.64,45.58
New Harbour,-56.65,47.59
New Hazelton,-127.58,55.24
New Liskeard,-79.68,47.5
New Maryland,-66.66,45.87
New Minas,-64.46,45.06
New Norway,-112.95,52.86
New Richmond,-65.86,48.16
New Ross,-64.45,44.73
New Sarepta,-113.14,53.27
New Tecumseth,-79.76,44.08
New Westminster,-122.91,49.2
Newboro,-76.31,44.65
Newbrook,-112.95,54.32
Newburgh,-76.87,44.32
Newbury,-81.79,42.69
Newcastle Village,-78.58,43.91
Newdale,-100.2,50.35
Newington,-75.01,45.11
Newmarket,-66.91,45.82
Newport,-64.74,48.26
New-Wes-Valley,-53.62,49.15
Niagara Falls,-79.1,43.06
Niagara-on-the-Lake,-79.12,43.2
Nicolet,-72.61,46.21
Nigadoo,-65.73,47.73
Ninette,-99.62,49.4
Nipawin,-104.01,53.35
Nipigon,-88.26,49.01
Niton Junction,-115.76,53.62
Niverville,-97.04,49.6
Nobel,-80.08,45.41
Nobleford,-113.05,49.88
Nobleton,-79.65,43.9
Noel,-63.74,45.29
Noëlville,-80.43,46.13
Nokomis,-105.0,51.51
Nominingue,-75.03,46.4
Noonan,-66.52,45.96
Nordegg,-116.07,52.47
Norembega,-80.71,48.98
Norglenwold,-114.12,52.32
Norland,-78.81,44.72
Norman Wells,-126.83,65.28
Normandin,-72.53,48.83
Normétal,-79.36,49.0
Norquay,-102.08,51.88
Norris Arm,-55.23,49.07
Norris Point,-57.87,49.51
North Augusta,-75.73,44.76
North Battleford,-108.28,52.75
North Bay,-58.32,47.8
North Bend,-121.45,49.88
North Cowichan,-123.71,48.82
North East Point,-65.6,43.5
North Gower,-75.71,45.13
North Hatley,-71.96,45.28
North Head,-66.74,44.76
North Perth,-80.96,43.72
North Portal,-102.55,49.0
North Rustico,-63.31,46.45
North Saanich,-123.43,48.65
North Spirit Lake,-93.03,52.49
North Vancouver,-123.07,49.32
North West River,-60.14,53.53
Northampton,-67.55,46.07
Northbrook,-77.15,44.73
Northeastern Manitoulin and the Islands,-82.1,45.87
Northgate,-102.26,49.0
Northport,-64.06,46.79
Norton,-65.73,45.65
Norway House,-97.81,53.99
Norwich,-80.59,42.98
Norwood,-66.02,44.06
Notre-Dame-des-Monts,-70.38,47.66
Notre-Dame-du-Bon-Conseil,-72.35,46.0
Notre-Dame-du-Lac,-68.79,47.61
Notre-Dame-du-Laus,-75.61,46.08
Notre-Dame-du-Mont-Carmel,-72.65,46.48
Notre-Dame-du-Nord,-79.48,47.6
Novar,-79.25,45.45
Oak Bay,-67.19,45.23
Oak Lake,-77.51,44.26
Oak Point,-66.08,45.51
Oakbank,-96.84,49.94
Oakburn,-100.57,50.56
Oakland,-64.35,44.45
Oakville,-67.75,46.24
Oakwood,-79.43,43.68
Oba,-84.1,49.05
Obed,-117.23,53.55
Ochre River,-99.78,51.06
Odell,-67.43,46.81
Odessa,-103.78,50.28
Ogema,-104.91,49.57
Oil Springs,-82.11,42.78
Oka,-74.08,45.46
Okanagan Falls,-119.56,49.35
Okotoks,-113.97,50.72
Olalla,-119.83,49.26
Old Fort Nelson,-122.54,58.82
Old Perlican,-52.99,48.08
Olds,-114.1,51.79
O'Leary,-64.22,46.7
Oliphant,-81.27,44.72
Oliver,-63.31,45.65
Omemee,-78.56,44.3
Ompah,-76.83,45.0
Onanole,-99.96,50.62
Onaping Falls,-81.37,46.6
Onoway,-114.19,53.7
Ootischenia,-117.62,49.28
Opasatika,-82.93,49.51
Opitsat,-125.91,49.16
Orangeville,-80.1,43.91
Orillia,-79.42,44.6
Orléans,-75.52,45.47
Ormiston,-105.39,49.73
Ormstown,-74.0,45.13
Oromocto,-66.47,45.84
Orono,-78.61,43.97
Orrville,-79.77,45.38
Osgoode,-75.6,45.14
Oshawa,-78.85,43.9
Osoyoos,-119.46,49.03
Ottawa,-75.67,45.4
Otter Lake,-63.73,44.62
Otterville,-80.6,42.92
Oujé-Bougoumou,-74.81,49.92
Outlook,-83.99,46.16
Owen Sound,-80.93,44.56
Oxbow,-67.29,47.0
Oxford,-63.86,45.73
Oxford House,-95.26,54.94
Oyama,-119.36,50.11
Oyen,-110.48,51.35
Paddle Prairie,-117.47,57.95
Paddockwood,-105.56,53.5
Paisley,-81.27,44.3
Palgrave,-79.83,43.94
Palmarolle,-79.2,48.66
Palmer Rapids,-77.5,45.31
Palmerston,-80.84,43.83
Pangman,-104.65,49.64
Papineauville,-75.01,45.61
Paquetville,-65.1,47.66
Paradise Hill,-109.45,53.54
Paradise River,-57.27,53.44
Paradise Valley,-110.29,53.03
Parent,-74.61,47.91
Parham,-76.71,44.65
Paris,-80.38,43.19
Parkers Cove,-54.86,47.39
Parkhill,-81.68,43.16
Parkside,-106.53,53.16
Parksville,-124.31,49.31
Parrsboro,-64.32,45.4
Parry,-104.72,49.78
Parry Sound,-80.03,45.35
Parson's Pond,-57.69,50.03
Pasadena,-57.56,49.01
Paspébiac,-65.25,48.03
Patricia,-111.67,50.69
Patuanak,-107.69,55.88
Pauingassi,-95.37,52.15
Paynton,-108.93,53.01
Peace River,-117.29,56.23
Peachland,-119.73,49.77
Peawanuck,-85.41,55.01
Peerless Lake,-114.57,56.67
Peers,-115.99,53.66
Pefferlaw,-79.2,44.31
Peguis,-97.56,51.3
Pelee Island,-82.68,41.76
Pelham,-79.26,43.14
Pelican Narrows,-102.93,55.18
Pelican Rapids,-100.69,52.74
Pelly,-101.92,51.85
Pemberton,-122.8,50.32
Pembroke,-66.15,43.86
Pender Island,-123.28,48.78
Penetanguishene,-79.9,44.78
Penhold,-113.87,52.13
Pennant,-108.23,50.53
Penniac,-66.57,46.03
Penobsquis,-65.38,45.77
Pense,-104.98,50.41
Penticton,-119.59,49.5
Percé,-64.21,48.53
Perdue,-107.54,52.05
Péribonka,-72.05,48.76
Perkins,-75.62,45.6
Perth,-76.25,44.89
Perth-Andover,-67.71,46.72
Petawawa,-77.27,45.89
Peterborough,-78.33,44.3
Petitcodiac,-65.16,45.93
Petit-de-Grat,-60.96,45.51
Petite-Aldouane,-64.88,46.7
Petite-Rivière,-70.57,47.3
Petrolia,-82.14,42.88
Phelpston,-79.84,44.51
Piapot,-109.11,49.98
Pibroch,-113.87,54.25
Pickardville,-113.88,54.05
Pickering,-79.13,43.9
Pickle Lake,-90.19,51.46
Picton,-77.14,44.0
Pictou,-62.7,45.67
Picture Butte,-112.77,49.87
Pierceland,-109.77,54.34
Pierreville,-72.81,46.06
Pierson,-101.26,49.18
Pikwitonei,-97.15,55.58
Pilot Butte,-104.41,50.47
Pilot Mound,-98.89,49.2
Pinawa,-95.88,50.14
Pincher Creek,-113.94,49.48
Pine Creek,-100.15,52.0
Pine Dock,-96.8,51.64
Pine Point,-78.86,44.14
Pine River,-81.66,44.1
Pinehouse,-106.57,55.52
Pinware,-56.71,51.62
Pipestone,-100.94,49.55
Pitt Meadows,-122.69,49.22
Placentia,-53.9,47.27
Plaisance,-75.11,45.61
Plamondon,-112.34,54.84
Plantagenet,-74.99,45.53
Plaster Rock,-67.39,46.9
Plattsville,-80.62,43.3
Pleasant Bay,-60.79,46.82
Pleasantville,-64.44,44.34
Plenty,-108.64,51.78
Plessisville,-71.78,46.21
Plevna,-76.98,44.96
Plum Coulee,-97.76,49.19
Plum Point,-56.88,51.07
Plumas,-99.08,50.38
Plymouth,-66.01,43.79
Plympton-Wyoming,-82.1,43.01
Pohénégamook,-69.21,47.46
Point Clark,-81.75,44.07
Point de Bute,-64.24,45.9
Point Leamington,-55.41,49.31
Point May,-55.93,46.94
Pointe au Baril Station,-80.37,45.59
Pointe du Bois,-95.55,50.3
Pointe-à-la-Frégate,-64.92,49.2
Pointe-à-la-Garde,-66.54,48.07
Pointe-aux-Anglais,-74.16,45.49
Pointe-aux-Outardes,-68.43,49.05
Pointe-Basse,-61.79,47.39
Pointe-Lebel,-68.2,49.16
Pointe-Sapin,-64.83,46.96
Pointe-Verte,-65.76,47.85
Pokemouche,-64.87,47.66
Pomquet,-61.84,45.62
Ponoka,-113.58,52.67
Ponteix,-107.48,49.74
Pont-Landry,-64.95,47.57
Pont-Rouge,-71.7,46.75
Pontypool,-78.62,44.1
Popkum,-121.73,49.2
Poplar Hill,-62.9,45.71
Poplar Point,-97.97,50.05
Poplar River,-97.27,52.99
Porcupine Plain,-103.25,52.59
Port Alberni,-124.8,49.23
Port Albert,-81.71,43.87
Port Alice,-127.48,50.42
Port au Choix,-57.32,50.7
Port Bickerton,-61.72,45.1
Port Blandford,-54.17,48.34
Port Burwell,-80.8,42.64
Port Carling,-79.58,45.11
Port Clements,-132.18,53.68
Port Colborne,-79.19,42.91
Port Coquitlam,-122.78,49.26
Port Dover,-80.2,42.78
Port Edward,-130.28,54.22
Port Elgin,-64.08,46.04
Port Felix,-61.21,45.26
Port Hardy,-127.49,50.72
Port Hastings,-61.4,45.64
Port Hawkesbury,-61.35,45.61
Port Hood,-61.53,46.01
Port Hope,-78.29,43.95
Port Hope Simpson,-56.29,52.54
Port La Tour,-65.47,43.49
Port Lambton,-82.5,42.65
Port Maitland,-66.14,43.98
Port McNeill,-127.08,50.58
Port McNicoll,-79.81,44.74
Port Medway,-64.57,44.12
Port Mellon,-123.48,49.51
Port Moody,-122.82,49.28
Port Morien,-59.87,46.13
Port Mouton,-64.84,43.92
Port Renfrew,-124.41,48.55
Port Rexton,-53.32,48.39
Port Rowan,-80.45,42.62
Port Saunders,-57.25,50.66
Port Severn,-79.71,44.8
Port Stanley,-81.21,42.66
Port Sydney,-79.28,45.22
Portage la Prairie,-98.29,49.97
Port-Cartier,-66.86,50.03
Port-Daniel-Centre,-64.98,48.15
Portland,-53.81,48.42
Portneuf,-71.88,46.7
Portugal Cove South,-53.25,46.7
Portugal Cove-St. Philip's,-52.83,47.62
Postville,-59.8,54.91
Pouce Coupe,-120.13,55.71
Pouch Cove,-52.77,47.74
Powassan,-79.36,46.08
Powell River,-124.52,49.83
Preeceville,-102.66,51.95
Preissac,-78.36,48.4
Prelate,-109.4,50.85
Prescott,-75.51,44.71
Prespatou,-121.05,56.93
Prévost,-74.08,45.86
Price,-64.99,46.01
Priceville,-66.28,46.51
Prince Albert,-65.05,45.0
Prince Edward,-77.25,44.02
Prince George,-122.74,53.91
Prince Rupert,-113.51,53.55
Princeton,-53.59,48.41
Princeville,-61.28,45.75
Pritchard,-119.81,50.68
Proulxville,-72.5,46.66
Providence Bay,-82.26,45.67
Provost,-110.26,52.35
Prud'homme,-105.89,52.33
Pugwash,-63.66,45.85
Pukatawagan,-101.31,55.74
Punnichy,-104.29,51.37
Quadeville,-77.37,45.31
Qualicum Beach,-124.44,49.34
Qu'Appelle,-103.87,50.54
Quatsino,-127.65,50.53
Québec,-71.21,46.81
Queensville,-61.35,45.72
Quesnel,-122.49,52.97
Quill Lake,-104.25,52.07
Quinte West,-77.58,44.19
Quispamsis,-65.92,45.44
Quyon,-76.23,45.52
Rabbit Lake,-107.76,53.14
Radisson,-77.61,53.79
Radium Hot Springs,-116.07,50.62
Radville,-104.29,49.46
Rainbow Lake,-119.4,58.5
Rainy River,-94.56,48.72
Raith,-89.91,48.82
Raleigh,-55.72,51.55
Rama Road,-79.34,44.65
Rankin Inlet,-92.08,62.81
Rapid City,-100.03,50.12
Rawdon,-73.71,46.05
Raymond,-79.42,45.2
Raymore,-104.52,51.4
Red Bay,-56.42,51.73
Red Deer,-113.81,52.26
Red Harbour,-55.0,47.29
Red Lake Road,-93.35,49.96
Red Rock,-66.68,46.25
Red Sucker Lake,-93.56,54.16
Redcliff,-110.78,50.07
Redditt,-94.38,49.97
Redvers,-101.7,49.57
Redwater,-113.1,53.95
Reefs Harbour,-57.01,51.01
Regina,-104.6,50.45
Regina Beach,-104.97,50.78
Reinland,-97.87,49.04
Rémigny,-79.2,47.76
Rencontre East,-55.21,47.63
Renfrew,-76.68,45.47
Rennie,-95.55,49.85
Renous,-65.79,46.81
Repentigny,-73.46,45.73
Resolute,-94.82,74.69
Reston,-101.09,49.55
Revelstoke,-75.69,45.35
Rexton,-64.87,46.64
Rhein,-102.19,51.35
Riceville,-67.51,46.0
Richards Landing,-84.03,46.29
Richer,-96.45,49.65
Richibucto,-64.86,46.68
Richibucto-Village,-64.75,46.65
Richmond,-63.99,46.5
Richmond Hill,-79.43,43.87
Richmound,-109.75,50.45
Rideau Ferry,-76.14,44.85
Ridgetown,-81.88,42.44
Riding Mountain,-99.46,50.53
Rigaud,-74.3,45.48
Rigolet,-58.43,54.17
Riley Brook,-67.21,47.17
Rimbey,-114.23,52.63
Rimouski,-68.53,48.45
Riondel,-116.85,49.76
Ripley,-81.58,44.07
Ripon,-75.1,45.78
River Hebert,-64.37,45.69
River John,-63.05,45.75
River of Ponds,-57.38,50.53
River Valley,-80.18,46.58
Riverhead,-53.48,46.99
Riverhurst,-106.86,50.9
Riverport,-64.32,44.29
Rivers,-100.23,50.03
Riverside-Albert,-64.74,45.74
Riverton,-62.67,45.52
Riverview,-63.76,45.8
Rivière-au-Renard,-64.38,48.99
Rivière-Bleue,-69.05,47.43
Rivière-du-Loup,-69.53,47.83
Rivière-du-Portage,-64.93,47.42
Rivière-Ouelle,-70.01,47.43
Rivière-Portneuf,-69.09,48.62
Rivière-Verte,-68.14,47.32
Robb,-116.97,53.23
Robert's Arm,-55.83,49.47
Roberts Creek,-123.65,49.41
Roberval,-72.23,48.51
Robinsonville,-66.94,47.87
Roblin,-77.02,44.37
Robsart,-109.28,49.38
Rocanville,-101.69,50.38
Roche Percee,-102.8,49.06
Rochester,-113.46,54.37
Rochon Sands,-112.87,52.45
Rockglen,-105.94,49.18
Rockland,-65.07,43.73
Rockport,-64.5,45.73
Rockwood,-80.13,43.61
Rocky Harbour,-57.91,49.59
Rocky Mountain House,-114.92,52.37
Rockyford,-113.14,51.23
Rodney,-64.03,45.6
Rogersville,-65.42,46.73
Roland,-97.94,49.36
Rolla,-120.13,55.9
Rollet,-79.24,47.91
Rolling Hills,-111.77,50.22
Rolphton,-77.69,46.17
Rorketon,-99.58,51.38
Rosalind,-112.44,52.78
Rose Blanche-Harbour Le Cou,-58.69,47.62
Rose Valley,-103.8,52.29
Rosebud,-112.95,51.29
Rosemary,-112.08,50.75
Roseneath,-78.05,44.19
Rosenfeld,-97.54,49.19
Rosenort,-97.43,49.45
Rosetown,-97.74,49.04
Roslin,-63.78,45.75
Rossburn,-100.81,50.66
Rosseau,-79.64,45.25
Rossland,-117.8,49.07
Rossmore,-77.38,44.13
Rossport,-87.52,48.83
Rosthern,-106.33,52.66
Rothesay,-65.96,45.38
Rouleau,-104.9,50.19
Round Hill,-65.4,44.77
Round Lake Centre,-77.53,45.61
Rouyn-Noranda,-79.01,48.23
Roxton Falls,-72.51,45.56
Roxton Pond,-72.66,45.48
Royston,-124.95,49.65
Ruisseau-Gagnon,-67.41,48.72
Rusagonis,-66.62,45.8
Rushoon,-54.92,47.35
Russell,-75.35,45.25
Rycroft,-118.7,55.75
Ryley,-112.42,53.29
Saanich,-123.37,48.45
Sable River,-65.05,43.84
Sackville,-64.38,45.91
Saddle Lake,-111.69,53.96
Sagamok,-82.1,46.15
Saguenay,-71.06,48.41
Saint Andrews,-67.05,45.07
Saint John,-66.03,45.25
Saint-Adrien,-71.71,45.81
Saint-Agapit,-71.43,46.56
Saint-Alban,-72.08,46.71
Saint-Alexandre,-73.11,45.23
Saint-Alexandre-de-Kamouraska,-69.63,47.68
Saint-Alexis-des-Monts,-73.13,46.46
Saint-Ambroise,-71.33,48.55
Saint-André,-67.74,47.13
Saint-André-Avellin,-75.06,45.71
Saint-André-Est,-74.33,45.55
Saint-Anselme,-64.71,46.06
Saint-Antoine,-64.75,46.36
Saint-Antonin,-69.48,47.76
Saint-Apollinaire,-71.51,46.61
Saint-Arthur,-66.75,47.88
Saint-Augustin,-73.98,45.62
Saint-Barnabé-Nord,-72.88,46.39
Saint-Basile,-68.22,47.35
Saint-Bernard,-71.13,46.5
Saint-Bernard-sur-Mer,-70.38,47.41
Saint-Bruno,-70.82,48.29
Saint-Camille-de-Bellechasse,-70.21,46.49
Saint-Casimir,-72.13,46.65
Saint-Célestin,-72.43,46.21
Saint-Césaire,-73.0,45.41
Saint-Charles-de-Bellechasse,-70.95,46.76
Saint-Charles-sur-Richelieu,-73.18,45.68
Saint-Chrysostome,-73.76,45.1
Saint-Coeur-de-Marie,-71.69,48.63
Saint-Côme,-73.78,46.26
Saint-Cyprien,-69.01,47.9
Saint-Cyrille-de-L'Islet,-70.27,47.03
Saint-Cyrille-de-Wendover,-72.43,45.93
Saint-Damase,-67.83,48.66
Saint-Damien-de-Buckland,-70.66,46.63
Saint-David-de-Falardeau,-71.11,48.61
Saint-Denis-sur-Richelieu,-73.15,45.78
Saint-Dominique,-72.85,45.56
Saint-Donat-de-Montcalm,-74.22,46.31
Sainte-Adèle,-74.13,45.95
Sainte-Agathe-de-Lotbinière,-71.41,46.38
Sainte-Agathe-des-Monts,-74.28,46.05
Sainte-Angèle-de-Mérici,-68.08,48.53
Sainte-Anne-de-Beaupré,-70.93,47.01
Sainte-Anne-de-Kent,-64.77,46.55
Sainte-Anne-de-la-Pérade,-72.2,46.58
Sainte-Anne-de-Madawaska,-68.02,47.24
Sainte-Anne-des-Plaines,-73.81,45.76
Sainte-Apolline,-70.19,46.8
Sainte-Blandine,-68.45,48.36
Sainte-Cécile-de-Masham,-76.03,45.64
Sainte-Claire,-70.86,46.6
Sainte-Clotilde-de-Horton,-72.23,45.98
Sainte-Croix,-71.73,46.61
Saint-Édouard,-72.8,45.68
Sainte-Émélie-de-l'Énergie,-73.65,46.31
Sainte-Famille,-70.96,46.96
Sainte-Félicité,-69.93,46.95
Sainte-Florence,-67.23,48.26
Sainte-Hélène-de-Bagot,-72.73,45.73
Sainte-Hélène-de-Kamouraska,-69.73,47.6
Sainte-Jeanne-d'Arc,-67.95,48.5
Sainte-Julie,-73.33,45.58
Sainte-Justine,-70.35,46.4
Sainte-Luce,-68.38,48.55
Saint-Elzéar,-65.4,48.15
Sainte-Madeleine,-73.1,45.6
Sainte-Marie,-71.03,46.45
Sainte-Marie-Saint-Raphaël,-64.57,47.77
Sainte-Martine,-73.8,45.25
Sainte-Monique,-71.85,48.73
Sainte-Pétronille,-71.13,46.85
Saint-Éphrem-de-Beauce,-70.95,46.06
Saint-Épiphane,-69.33,47.9
Sainte-Rose-du-Nord,-70.58,48.38
Sainte-Rose-Gloucester,-64.93,47.61
Sainte-Thècle,-72.5,46.81
Saint-Eustache,-73.9,45.56
Sainte-Véronique,-74.99,46.51
Saint-Fabien,-64.87,46.43
Saint-Félicien,-72.45,48.65
Saint-Félix-de-Kingsey,-72.18,45.8
Saint-Félix-de-Valois,-73.43,46.16
Saint-Ferdinand,-71.56,46.1
Saint-Fidèle,-69.99,47.73
Saint-François de Madawaska,-68.7,47.24
Saint-Fulgence,-70.9,48.45
Saint-Gabriel,-73.38,46.3
Saint-Gabriel-de-Rimouski,-68.16,48.41
Saint-Gédéon,-71.76,48.5
Saint-Georges,-70.66,46.11
Saint-Germain-de-Grantham,-72.56,45.83
Saint-Gervais,-70.88,46.71
Saint-Grégoire,-64.7,46.42
Saint-Guillaume,-72.76,45.88
Saint-Hilarion,-70.4,47.56
Saint-Honoré,-71.08,48.53
Saint-Honoré-de-Témiscouata,-69.13,47.7
Saint-Hubert-de-Rivière-du-Loup,-69.15,47.81
Saint-Hugues,-72.86,45.8
Saint-Hyacinthe,-72.95,45.61
Saint-Ignace,-65.07,46.69
Saint-Isidore,-65.04,47.55
Saint-Jacques,-68.38,47.43
Saint-Jean-Baptiste,-64.7,46.47
Saint-Jean-Baptiste-de-Restigouche,-67.21,47.76
Saint-Jean-de-Dieu,-69.05,48.0
Saint-Jean-de-Matha,-73.53,46.23
Saint-Jean-Port-Joli,-70.26,47.21
Saint-Jean-sur-Richelieu,-73.26,45.31
Saint-Jérôme,-74.0,45.78
Saint-Joseph-de-Beauce,-70.88,46.3
Saint-Jovite,-74.59,46.11
Saint-Just-de-Bretenières,-70.1,46.56
Saint-Lambert-de-Lévis,-71.21,46.58
Saint-Lazare-de-Bellechasse,-70.8,46.65
Saint-Léolin,-65.16,47.77
Saint-Léonard-d'Aston,-72.36,46.1
Saint-Liboire,-72.76,45.65
Saint-Louis de Kent,-64.97,46.73
Saint-Louis-de-Gonzague,-70.33,46.26
Saint-Magloire,-70.28,46.58
Saint-Malo,-71.5,45.2
Saint-Marc-des-Carrières,-72.05,46.68
Saint-Martin,-70.65,45.96
Saint-Martin-de-Restigouche,-67.33,47.56
Saint-Michel,-73.56,45.23
Saint-Michel-de-Bellechasse,-70.91,46.86
Saint-Michel-des-Saints,-73.91,46.68
Saint-Nicéphore,-72.41,45.82
Saint-Noël,-67.83,48.58
Saint-Odilon,-70.67,46.35
Saint-Ours,-73.15,45.88
Saint-Pacôme,-69.95,47.4
Saint-Pamphile,-69.78,46.96
Saint-Pascal,-69.8,47.53
Saint-Paul,-65.0,46.33
Saint-Paul-de-Montminy,-70.36,46.73
Saint-Paulin,-73.03,46.41
Saint-Philémon,-70.45,46.68
Saint-Philippe-de-Néri,-69.88,47.46
Saint-Pie,-68.33,48.3
Saint-Pierre-les-Becquets,-72.2,46.5
Saint-Prosper-de-Dorchester,-70.48,46.21
Saint-Quentin,-67.39,47.51
Saint-Raphaël,-70.75,46.8
Saint-Raymond,-71.83,46.9
Saint-Rémi,-73.61,45.26
Saint-Roch-des-Aulnaies,-70.18,47.31
Saint-Sauveur,-65.29,47.52
Saint-Siméon,-65.56,48.06
Saint-Sylvestre,-71.23,46.36
Saint-Théophile,-70.48,45.93
Saint-Tite,-72.56,46.73
Saint-Ubalde,-72.26,46.75
Saint-Ulric,-67.7,48.78
Saint-Vallier,-70.81,46.88
Saint-Victor,-70.9,46.15
Saint-Wenceslas,-72.33,46.16
Saint-Zacharie,-70.36,46.13
Saint-Zotique,-74.25,45.25
Salaberry-de-Valleyfield,-74.13,45.25
Salisbury,-65.04,46.02
Salmo,-117.27,49.19
Salmon Arm,-119.27,50.7
Salmon Creek,-65.83,45.83
Salmon River,-66.16,44.05
Saltair,-123.76,48.95
Saltcoats,-102.16,51.04
Saltery Bay,-124.18,49.78
Salvage,-53.66,48.67
Sambro,-63.6,44.47
San Clara,-101.42,51.49
Sandfield,-60.26,45.96
Sandspit,-131.81,53.25
Sandy Bay,-98.64,50.55
Sandy Beach,-64.42,48.81
Sandy Lake,-93.32,53.06
Sandy Point,-65.32,43.7
Sanford,-72.2,47.48
Sangudo,-114.9,53.88
Sanmaur,-73.79,47.89
Sarnia,-82.31,42.98
Sarsfield,-75.34,45.44
Saskatoon,-106.68,52.13
Sauble Beach,-81.26,44.63
Saugeen Shores,-81.37,44.4
Saulnierville,-66.12,44.26
Sault Ste. Marie,-84.34,46.55
Sault-au-Mouton,-69.25,48.54
Saumarez,-64.93,47.49
Savona,-120.83,50.75
Sawyerville,-71.56,45.33
Sayabec,-67.68,48.56
Sayward,-125.95,50.37
Scandia,-112.04,50.27
Sceptre,-109.26,50.86
Schefferville,-66.83,54.8
Schomberg,-79.68,44.0
Schreiber,-87.25,48.81
Schuler,-110.1,50.33
Scotch Creek,-119.45,50.9
Scots Bay,-64.39,45.3
Scotstown,-71.28,45.53
Scott,-71.06,46.5
Scoudouc,-64.56,46.16
Seaforth,-63.25,44.66
Seal Cove,-56.37,49.93
Searchmont,-84.05,46.78
Seba Beach,-114.73,53.55
Sechelt,-123.76,49.47
Sedgewick,-111.69,52.77
Sedley,-104.01,50.17
Seebe,-115.05,51.09
Seeleys Bay,-76.23,44.47
Seine River Village,-92.42,48.72
Selkirk,-79.93,42.83
Semans,-104.73,51.4
Senlac,-109.7,52.49
Senneterre,-77.23,48.38
Sept-Îles,-66.38,50.21
Seven Persons,-110.9,49.87
Sevogle,-65.82,47.08
Sexsmith,-118.78,55.35
Shag Harbour,-65.71,43.49
Shalalth,-122.21,50.72
Shallow Lake,-81.08,44.61
Shamattawa,-92.08,55.85
Sharon,-81.35,42.89
Shaunavon,-108.41,49.65
Shawinigan,-72.75,46.56
Shawnigan Lake,-123.62,48.65
Shawville,-76.48,45.6
Shebandowan,-90.06,48.62
Shediac,-64.53,46.22
Shediac Bridge,-64.58,46.27
Sheet Harbour,-62.53,44.92
Sheguiandah,-81.92,45.89
Sheho,-103.21,51.58
Shelburne,-65.32,43.76
Shell Lake,-107.06,53.3
Shellbrook,-106.38,53.22
Sherbrooke,-63.78,46.42
Sherridon,-101.08,55.12
Sherwood Park,-63.66,44.67
Sheshatshiu,-60.14,53.51
Sheshegwaning,-82.84,45.93
Shippagan,-64.72,47.73
Shoal Lake,-95.1,49.61
Shubenacadie,-63.4,45.08
Shuswap Falls,-118.81,50.29
Sicamous,-118.98,50.83
Sidney,-99.07,49.9
Siegas,-67.98,47.21
Sifton,-100.14,51.36
Sillikers,-65.87,46.94
Silver Sands,-114.65,53.63
Silverton,-101.15,50.76
Simcoe,-80.31,42.84
Simpson,-105.44,51.45
Singhampton,-80.24,44.35
Sintaluta,-103.44,50.47
Sioux Lookout,-91.92,50.09
Sioux Valley,-100.5,49.85
Skidegate,-131.99,53.26
Slave Lake,-114.77,55.28
Slesse Park,-121.81,49.08
Sliammon,-124.6,49.89
Slocan,-117.46,49.76
Smeaton,-104.81,53.49
Smiley,-109.47,51.62
Smith,-114.03,55.16
Smithers,-127.17,54.77
Smiths Falls,-76.01,44.9
Smithville,-61.33,46.1
Smoky Lake,-112.46,54.11
Smooth Rock Falls,-81.62,49.27
Snow Lake,-100.03,54.87
Sointula,-127.01,50.63
Sombra,-82.47,42.71
Somerset,-64.74,45.07
Sonningdale,-107.68,52.38
Sooke,-123.73,48.38
Sorel-Tracy,-73.11,46.04
Sorrento,-119.46,50.88
Souris,-62.25,46.35
South Branch,-63.08,45.16
South Brook,-56.08,49.4
South Bruce Peninsula,-81.21,44.7
South Harbour,-60.46,46.86
South Huron,-81.5,43.31
South Indian Lake,-98.93,56.78
South Mountain,-75.45,44.99
South Ohio,-66.06,43.92
South Porcupine,-81.21,48.48
South River,-53.26,47.53
Southampton,-64.24,45.59
Southbank,-125.76,54.01
Southend Reindeer,-103.26,56.31
Southey,-104.49,50.94
Spallumcheen,-119.21,50.4
Spaniard's Bay,-53.33,47.61
Spanish,-82.34,46.19
Sparta,-81.07,42.7
Sparwood,-114.88,49.73
Spences Bridge,-121.35,50.41
Spillimacheen,-116.36,50.9
Spirit River,-118.83,55.77
Spiritwood,-107.51,53.36
Split Lake,-96.09,56.24
Spragge,-82.65,46.2
Sprague,-95.63,49.03
Spring Coulee,-113.05,49.33
Springdale,-56.06,49.51
Springfield,-64.87,44.63
Springhill,-64.05,45.65
Springside,-102.74,51.34
Sproat Lake,-124.91,49.28
Spruce Grove,-113.9,53.55
Spruce View,-114.31,52.08
Sprucedale,-79.46,45.48
Sputinow,-110.25,53.91
Spy Hill,-101.68,50.6
Squamish,-123.15,49.69
Squatec,-68.72,47.88
St. Adolphe,-97.11,49.67
St. Alban's,-55.84,47.87
St. Albert,-113.62,53.63
St. Ambroise,-98.03,50.25
St. Andrews,-61.88,45.55
St. Anthony,-55.61,51.37
St. Benedict,-105.39,52.56
St. Brendan's,-53.66,48.85
St. Bride's,-54.17,46.92
St. Brieux,-104.88,52.63
St. Catharines,-79.25,43.16
St. Claude,-98.34,49.65
St. Eustache,-97.78,49.97
St. George,-66.82,45.13
St. Gregor,-104.82,52.17
St. Hilaire,-68.39,47.29
St. Isidore,-74.9,45.38
St. Jean Baptiste,-97.33,49.26
St. John's,-52.79,47.48
St. Lawrence,-55.4,46.9
St. Louis,-64.14,46.88
St. Lunaire-Griquet,-55.48,51.52
St. Malo,-96.94,49.31
St. Margaret Village,-60.47,46.98
St. Margarets,-65.19,46.9
St. Martins,-65.55,45.34
St. Marys,-61.09,45.54
St. Mary's,-53.53,46.91
St. Paul,-111.29,53.99
St. Pauls,-57.8,49.86
St. Peter's,-60.87,45.65
St. Peters Bay,-62.58,46.41
St. Stephen,-67.29,45.18
St. Teresa,-58.64,48.36
St. Theresa Point,-94.84,53.83
St. Thomas,-67.6,46.32
St. Victor,-105.86,49.43
St. Vincent's-St. Stephen's-Peter's River,-53.58,46.77
St. Walburg,-109.2,53.62
St. Williams,-80.41,42.66
St.-Charles,-80.47,46.35
Stand Off,-113.3,49.46
Standard,-112.98,51.1
Stanhope,-71.79,45.01
Stanley,-63.92,45.08
Stanley Mission,-104.56,55.41
Stanstead Plain,-72.09,45.01
Star City,-104.33,52.86
Starbuck,-97.61,49.77
Stavely,-113.64,50.16
Stayner,-80.07,44.39
Ste. Agathe,-97.18,49.56
Ste. Anne,-96.64,49.66
Ste. Rose du Lac,-99.52,51.05
Steinbach,-96.68,49.52
Stellarton,-62.65,45.55
Stephenville,-58.54,48.54
Stephenville Crossing,-58.45,48.52
Stettler,-112.7,52.32
St-Eugène,-74.46,45.5
Stevensville,-79.05,42.94
Stewart,-129.99,55.93
Stewart Valley,-107.8,50.59
Stewiacke,-63.34,45.13
Stirling,-60.43,45.73
St-Lazare,-101.3,50.44
Stockholm,-102.3,50.65
Stoke,-71.8,45.53
Stokes Bay,-81.36,45.0
Stonewall,-97.32,50.13
Stoney Point/Pointe-aux-Roches,-82.54,42.3
Stony Mountain,-97.21,50.08
Stony Plain,-114.0,53.52
Stony Rapids,-105.83,59.25
Storthoaks,-101.6,49.38
Stouffville,-79.24,43.97
Stoughton,-103.02,49.67
St-Pierre-Jolys,-96.98,49.44
Straffordville,-80.77,42.74
Strasbourg,-104.95,51.07
Stratford,-63.08,46.21
Strathclair,-100.39,50.4
Strathmore,-74.8,45.19
Strathroy,-81.61,42.96
Stratton,-94.16,48.68
Strome,-112.06,52.81
Stukely-Sud,-72.41,45.31
Sturdies Bay,-123.31,48.87
Sturgeon Falls,-79.92,46.36
Sturgis,-102.54,51.94
Sudbury,-80.97,46.5
Suffield,-111.16,50.21
Sugarcane,-121.98,52.1
Sully,-69.15,47.45
Sultan,-82.75,47.59
Summer Beaver,-88.51,52.74
Summerford,-54.78,49.49
Summerland,-119.68,49.6
Summerside,-63.78,46.39
Sun Valley,-105.54,50.65
Sundre,-114.63,51.79
Sundridge,-62.84,45.71
Sunny Corner,-65.81,46.94
Sunnyside,-53.91,47.87
Surrey,-64.63,45.91
Sussex,-65.51,45.72
Sutton,-72.61,45.1
Swan Hills,-115.4,54.71
Swan Lake,-98.79,49.41
Swan River,-101.26,52.1
Sweaburg,-80.76,43.06
Swift Current,-107.79,50.28
Sylvan Lake,-114.09,52.3
Sylvania,-104.0,52.69
Taber,-112.15,49.78
Tabusintac,-65.01,47.32
Tachie,-124.75,54.65
Tadoussac,-69.71,48.15
Taghum,-117.38,49.48
Tahsis,-126.66,49.91
Tamworth,-76.99,44.48
Tangent,-117.67,55.79
Tangier,-62.69,44.8
Tantallon,-63.9,44.65
Tappen,-119.33,50.78
Tara,-81.14,44.47
Taschereau,-78.68,48.66
Tasiujaq,-69.93,58.7
Tatamagouche,-63.29,45.71
Tavistock,-80.83,43.32
Taylor,-76.21,44.41
Taymouth,-66.6,46.18
Tee Lake,-79.04,46.75
Teeswater,-81.28,43.99
Teeterville,-80.44,42.94
Telegraph Creek,-131.16,57.9
Telkwa,-127.05,54.69
Temagami,-79.79,47.06
Témiscaming,-79.1,46.71
Temperance Vale,-67.24,46.06
Terence Bay,-63.72,44.47
Terrace,-128.59,54.51
Terrace Bay,-87.1,48.78
Terrebonne,-73.63,45.7
Terrenceville,-54.7,47.65
Tête-à-la-Baleine,-59.32,50.7
Teulon,-97.26,50.38
Thamesford,-81.0,43.05
Thamesville,-81.97,42.55
The Pas,-101.25,53.82
Thedford,-81.84,43.16
Theodore,-102.92,51.42
Thessalon,-83.55,46.26
Thetford Mines,-71.3,46.1
Thicket Portage,-97.68,55.31
Thivierge,-65.48,48.08
Thompson,-97.85,55.74
Thorhild,-113.12,54.15
Thornbury,-80.45,44.55
Thornloe,-79.76,47.66
Thornton,-79.72,44.27
Thorold,-79.22,43.07
Thorsby,-114.04,53.22
Three Hills,-113.26,51.7
Thrums,-117.58,49.33
Thunder Bay,-79.03,42.88
Thurso,-75.25,45.6
Tignish,-64.03,46.95
Tilbury,-82.43,42.25
Tilley,-75.98,44.44
Tillsonburg,-80.73,42.86
Timber Bay,-105.67,54.16
Timberlea,-63.74,44.66
Timmins,-81.33,48.47
Tingwick,-71.95,45.88
Tintagel,-125.6,54.2
Tisdale,-104.04,52.84
Tiverton,-66.21,44.39
Tlell,-131.93,53.56
Tobermory,-81.66,45.25
Tofield,-112.66,53.37
Tofino,-125.9,49.15
Togo,-101.58,51.4
Toledo,-75.99,44.74
Tomahawk,-114.76,53.39
Tompkins,-108.79,50.06
Topley,-126.3,54.5
Torbay,-52.75,47.65
Toronto,-79.39,43.67
Torquay,-103.48,49.14
Tracadie-Sheila,-64.91,47.51
Tracy,-66.68,45.67
Trail,-117.7,49.09
Treherne,-98.69,49.62
Trenton,-62.63,45.61
Trepassey,-53.36,46.74
Tribune,-103.82,49.24
Tring-Jonction,-70.98,46.26
Trochu,-113.22,51.82
Trois-Pistoles,-69.18,48.11
Trois-Rivières,-72.55,46.35
Trossachs,-104.22,49.63
Trout Creek,-79.36,45.98
Trout Lake,-61.45,45.26
Trout River,-58.12,49.47
Truemanville,-64.07,45.85
Truro,-63.27,45.36
Tsawwassen,-123.08,49.01
Tugaske,-106.28,50.87
Tulliby Lake,-110.18,53.71
Tumbler Ridge,-120.99,55.12
Turin,-81.87,42.52
Turkey Point,-80.32,42.69
Turner Valley,-114.28,50.67
Turnor Lake,-108.7,56.47
Turtle Creek,-64.88,45.96
Turtleford,-108.95,53.38
Tusket,-65.97,43.85
Tweed,-77.33,44.47
Twillingate,-54.74,49.64
Two Hills,-111.74,53.71
Tyndall,-96.65,50.08
Tyne Valley,-63.92,46.57
Ucluelet,-125.54,48.94
Umiujaq,-76.55,56.53
Union,-82.67,42.03
Union Bay,-124.88,49.58
Upper Fraser,-121.93,54.11
Upper Gagetown,-66.24,45.84
Upper Musquodoboit,-62.95,45.13
Upper Vaughan,-64.23,44.8
Upsalquitch,-66.88,47.82
Upton,-72.68,45.65
Usk,-128.41,54.63
Utopia,-66.77,45.14
Uxbridge,-79.18,44.14
Val Marie,-107.72,49.24
Val Rita,-82.54,49.44
Val-Brillant,-67.55,48.53
Val-Comeau,-64.88,47.46
Valcourt,-72.35,45.5
Val-d'Amour,-66.68,47.95
Val-David,-74.21,46.03
Val-d'Or,-77.78,48.1
Valemount,-119.28,52.82
Vallée-Jonction,-70.91,46.36
Valleyview,-76.53,44.24
Val-Paradis,-79.28,49.16
Van Anda,-124.55,49.75
Vancouver,-123.11,49.26
Vanderhoof,-124.0,54.01
Vanguard,-107.3,49.9
Vankleek Hill,-74.64,45.52
Vanscoy,-106.97,52.0
Varennes,-73.44,45.68
Vars,-75.35,45.35
Vassar,-95.83,49.09
Vaudreuil-Dorion,-74.03,45.4
Vaughan,-64.23,44.84
Vauxhall,-112.1,50.06
Vavenby,-119.71,51.58
Vegreville,-112.05,53.49
Verchères,-73.35,45.77
Vermilion,-110.85,53.35
Vermilion Bay,-93.38,49.85
Verner,-80.12,46.41
Vernon,-75.46,45.16
Verona,-76.69,44.48
Veteran,-111.12,52.0
Vibank,-103.94,50.33
Victoria,-53.23,47.77
Victoria Beach,-65.75,44.67
Victoria Harbour,-64.88,45.11
Victoriaville,-71.96,46.05
Vienna,-80.79,42.68
Viking,-111.77,53.09
Village of Queen Charlotte,-132.1,53.25
Villebois,-79.15,49.1
Ville-Marie,-79.43,47.33
Vilna,-111.92,54.11
Vimy,-113.65,54.06
Vineland,-79.39,43.15
Virden,-100.93,49.85
Virginiatown,-79.58,48.13
Viscount,-105.64,51.94
Vita,-96.56,49.13
Vittoria,-80.32,42.76
Vogar,-98.64,50.95
Vonda,-106.09,52.32
Vulcan,-113.26,50.4
Waasis,-66.57,45.82
Wabamun,-114.47,53.55
Wabana,-52.94,47.63
Wabasca-Desmarais,-113.85,55.96
Wabigoon,-92.6,49.72
Wabowden,-98.62,54.9
Wabush,-66.89,52.87
Wadena,-103.79,51.94
Wainwright,-110.85,52.83
Wakaw,-105.73,52.64
Wakefield,-67.52,46.22
Waldeck,-65.63,44.62
Waldheim,-106.65,52.62
Walhachin,-120.98,50.75
Walkerton,-81.15,44.12
Wallace,-63.47,45.81
Wallaceburg,-82.38,42.59
Walsh,-80.38,42.76
Walters Falls,-80.7,44.48
Walton,-64.0,45.22
Wapella,-101.97,50.25
Warburg,-114.32,53.17
Warkworth,-77.88,44.2
Warman,-106.58,52.32
Warner,-79.64,43.02
Warren,-64.12,45.84
Warwick,-71.98,45.95
Wasa,-115.73,49.78
Wasaga Beach,-80.01,44.49
Washago,-79.33,44.75
Waskada,-100.8,49.09
Waskaganish,-78.75,51.48
Waskatenau,-112.78,54.09
Waswanipi,-75.96,49.7
Waterford,-65.96,44.56
Waterhen,-99.54,51.83
Waterhen Reserve,-99.59,51.97
Waterloo,-64.68,44.32
Waterton Park,-113.91,49.05
Waterville,-64.67,45.05
Watford,-64.66,44.53
Watrous,-105.46,51.68
Watson,-104.51,52.12
Watson Lake,-128.7,60.06
Waupoos,-77.0,44.0
Waverley,-63.59,44.78
Wawanesa,-99.68,49.59
Wawota,-102.02,49.9
Webb,-108.2,50.18
Webbwood,-81.88,46.26
Webequie,-87.35,52.98
Wedgeport,-65.98,43.73
Weedon,-71.46,45.7
Weekes,-102.87,52.56
Weldon,-64.67,45.95
Welland,-79.22,42.99
Wellandport,-79.48,43.0
Wellesley,-80.71,43.55
Wellington,-63.99,46.45
Wells,-121.56,53.1
Welsford,-64.75,45.08
Wembley,-119.14,55.15
West Bay,-64.39,45.37
West Chezzetcook,-63.26,44.71
West Dalhousie,-65.22,44.71
West Guilford,-78.6,45.1
West Lorne,-81.6,42.6
West Nipissing,-80.04,46.44
West Vancouver,-123.15,49.33
West Wentworth,-63.6,45.68
Westbank,-119.63,49.83
Western Shore,-64.3,44.52
Westlock,-113.85,54.15
Westmeath,-76.88,45.81
Westport,-56.61,49.78
Westville,-62.71,45.55
Westwold,-119.75,50.46
Wetaskiwin,-113.37,52.96
Weyburn,-103.85,49.66
Weymouth,-65.99,44.41
Whapmagoostui,-77.75,55.28
Wharncliffe,-83.41,46.4
Wheatley,-82.46,42.09
Whistler,-122.95,50.11
Whitbourne,-53.54,47.42
Whitby,-78.95,43.93
Whitchurch-Stouffville,-79.31,44.0
White City,-104.35,50.43
White Fox,-104.08,53.45
White Lake,-77.46,44.44
White River,-85.28,48.59
White Rock,-64.41,45.05
Whitecourt,-115.68,54.14
Whitefish Bay,-93.95,49.4
Whitehorse,-135.08,60.69
Whitelaw,-118.07,56.1
Whitemouth,-95.97,49.95
Whitewood,-102.26,50.33
Whitney,-65.73,46.96
Whycocomagh,-61.11,45.97
Wiarton,-81.13,44.74
Wickham,-66.07,45.64
Wicklow,-67.59,46.49
Widewater,-115.03,55.36
Wikwemikong,-81.71,45.8
Wilberforce,-78.22,45.03
Wilcox,-104.72,50.09
Wilkie,-108.7,52.41
Williams Lake,-122.14,52.12
Williamsburg,-66.78,46.33
Williamsford,-80.86,44.37
Willingdon,-112.11,53.82
Willow Bunch,-105.63,49.39
Willow Grove,-65.81,45.33
Willow River,-122.46,54.06
Wilsons Beach,-66.93,44.93
Wimborne,-113.59,51.86
Winchester,-75.35,45.09
Windermere,-64.74,45.01
Windsor,-64.13,44.99
Windthorst,-102.83,50.1
Winfield,-80.6,43.67
Wingham,-81.3,43.88
Winkler,-97.94,49.18
Winlaw,-117.56,49.61
Winneway,-78.56,47.58
Winnipeg,-97.14,49.88
Winnipeg Beach,-96.97,50.49
Winnipegosis,-99.92,51.64
Winterton,-53.31,47.95
Wiseton,-107.65,51.31
Wishart,-103.97,51.54
Witless Bay,-52.82,47.28
Woburn,-70.86,45.38
Woking,-118.77,55.59
Wolfville,-64.35,45.09
Wollaston Lake,-103.16,58.1
Wolseley,-81.01,44.72
Wonowon,-121.8,56.73
Wood Mountain,-106.38,49.37
Woodlands,-66.76,46.17
Woodridge,-75.74,44.54
Woodsdale,-119.38,50.05
Woodstock,-55.89,49.96
Woodville,-59.36,47.86
Wooler,-77.7,44.15
Wotton,-71.8,45.73
Wrentham,-112.17,49.51
Wunnummin Lake,-89.29,52.93
Wyevale,-79.92,44.65
Wymark,-107.73,50.1
Wynndel,-116.55,49.18
Wynyard,-104.17,51.76
Wyoming,-82.12,42.95
Yahk,-116.08,49.08
Yale,-121.43,49.56
Yamachiche,-72.83,46.26
Yamaska,-72.91,46.0
Yarbo,-101.93,50.69
Yarker,-76.77,44.37
Yarmouth,-66.11,43.83
Yarrow,-122.05,49.08
Yellow Creek,-105.24,52.75
Yellow Grass,-104.16,49.8
Yellowknife,-114.37,62.45
Ymir,-117.21,49.28
York,-63.09,46.31
York Landing,-96.1,56.08
Yorkton,-102.46,51.21
Youbou,-124.2,48.86
Young,-105.74,51.76
Youngstown,-78.4,44.39
Zealandia,-107.74,51.61
Zeballos,-126.84,49.98
Zenon Park,-103.75,53.06
Zephyr,-79.26,44.2
Zurich,-81.62,43.42
