Municipality,Longitude,Latitude
?ejere K'elni Kue 196I,-111.47,59.52
105 Mile Post 2,-121.31,50.73
10th Line Shore,-76.15,45.09
12 Wing Shearwater,-63.51,44.63
12e Escadre Shearwater,-63.51,44.63
141 Mile House,-121.85,52.0
150 Mile House,-121.85,52.11
17 Wing Winnipeg,-97.23,49.88
17e Escadre Winnipeg,-97.23,49.88
4 1/2 Mile 2,-121.41,49.6
93 Mile,-121.33,51.56
A Kwis Ki Mahka,-94.71,56.34
Aass 3,-126.82,49.61
Abana,-79.33,48.95
Abbeydale,-114.93,51.05
Abbott's Corner,-72.79,45.03
Abbottsfield,-113.38,53.56
Abee,-113.02,54.23
Abénakis,-70.82,46.58
Aberarder,-82.09,43.05
Aberfeldy,-81.93,42.75
Abingdon,-79.68,43.08
Abitibi,-80.88,49.02
Abitibi 70,-79.97,48.63
Abitibi Canyon,-81.57,49.87
Abrams River,-65.94,43.82
Abrams Village,-64.08,46.45
Abuntlet Lake 4,-125.4,52.57
Acaciaville,-65.76,44.58
Acadia,-114.05,50.96
Achill,-79.91,44.01
Actons Corners,-75.71,44.98
Adams Gulch,-67.04,47.83
Adamsdale,-80.9,46.48
Adamsville,-65.18,46.39
Adanac,-80.205,46.195
Addington Forks,-62.08,45.56
Addington Highlands,-77.31,44.93
Addison,-75.88,44.66
Adelaide,-81.71,43.0
Adelaide Metcalfe,-81.71,42.94
Adelaide Park,-106.64,52.09
Adeytown,-53.93,48.07
Adjala-Tosorontio,-79.93,44.13
Admaston,-76.81,45.47
Admaston/Bromley,-76.89,45.52
Admiral Rock,-63.4,45.17
Admiral's Cove,-52.9,47.09
Adolphustown,-77.0,44.06
Adstock,-71.08,46.05
Advance,-82.42,45.86
Aetna,-113.24,49.13
Afton,-61.71,45.6
Agassiz,-121.76,49.23
Agats Meadow 8,-124.16,52.28
Agawa Bay,-84.62,47.34
Agency 1,-93.36,48.62
Agency 30,-94.61,49.36
Agerton,-79.8,43.55
Aghaming,-96.28,51.18
Agincourt,-79.28,43.79
Agincourt North,-79.26,43.8
Aglakumna 4A,-126.65,50.55
Aglakumna-la 2,-126.51,50.57
Aguanish,-62.08,50.21
Agwedin 3,-127.68,55.38
Ahahswinis 1,-124.82,49.26
Ahaminaquus 12,-126.11,49.68
Ahmacinnit 3,-127.39,50.01
Ahmic Harbour,-79.77,45.66
Ahmic Lake,-79.68,45.62
Ahmitsa 5,-125.05,48.96
Ahnuhati 6,-125.64,50.89
Ahous 16,-126.02,49.16
Ahpokum 9,-124.58,50.24
Ahpukto 3,-126.94,49.81
Ahta 3,-126.16,50.87
Ahtahkakoop 104,-106.9,53.38
Ahuk 1,-124.88,48.7
Ahuntsic-Cartierville,-73.66,45.55
Ah-we-cha-ol-to 16,-127.97,50.53
Aikwucks 15,-123.16,49.76
Aillik,-59.2,55.21
Ain 6,-132.42,53.73
Ainslie Glen,-61.13,46.02
Ainsworth Hot Springs,-116.91,49.73
Air Ronge,-105.34,55.08
Airlie,-80.0,44.26
Airy,-78.25,45.49
Aitchelitch 9,-121.99,49.14
Ak:tiis,-127.39,50.01
Akinsdale,-113.59,53.62
Akwesasne 59,-74.56,45.04
Akwesasne Reserve 15,-74.56,45.01
Alalco 8,-126.52,51.05
Alastair 80,-129.17,54.13
Alastair 81,-129.17,54.1
Alastair 82,-129.19,54.06
Alba,-61.0,45.93
Albany,-65.05,44.77
Albany Cross,-65.02,44.72
Albany New,-65.08,44.45
Alberni,-124.8,49.25
Alberni 2,-124.81,49.21
Albert,-77.13,44.31
Albert Bridge,-60.05,46.01
Albert Flat 5,-121.41,49.51
Albert Head,-123.5,48.39
Albert Head Battery Point Training Area,-123.48,48.38
Albert Mines,-64.66,45.87
Albert Park,-104.63,50.4
Albert Park South,-104.63,50.4
Alberta Avenue,-113.48,53.56
Alberta Park Industrial,-113.59,53.56
Albion,-122.55,49.18
Albion Falls,-79.81,43.19
Albro Lake,-63.58,44.68
Albuna,-82.63,42.13
Albury,-77.52,44.07
Alcida,-65.82,47.77
Alcomdale,-113.83,53.89
Alcove,-75.93,45.68
Alder,-79.38,44.18
Alder Creek 70,-129.42,54.23
Alder River,-61.71,45.48
Alderburn,-55.25,49.11
Alderdale,-79.26,46.1
Alderney Point,-60.95,45.49
Aldershot,-79.84,43.3
Aldershot Range and Training Area,-64.53,45.09
Alderslea,-79.53,44.32
Aldersville,-64.5,44.81
Aldersyde,-113.87,50.67
Alderville,-78.06,44.18
Alderville First Nation,-78.08,44.17
Alderwood,-64.99,47.51
Aldred's Beach,-78.86,44.16
Alert Bay 1,-126.92,50.59
Alert Bay 1A,-126.94,50.59
Alexander 134,-113.96,53.81
Alexander 134a,-116.45,54.28
Alexander 134b,-114.81,54.34
Alexandra,-63.03,46.19
Alexandra Point Range,-63.05,46.19
Alexandria 1,-122.47,52.56
Alexandria 10,-122.6,52.66
Alexandria 11,-122.6,52.63
Alexandria 12,-122.32,52.51
Alexandria 1A,-122.45,52.56
Alexandria 3,-122.5,52.58
Alexandria 3A,-122.5,52.56
Alexandrina,-64.78,46.31
Alexis 133,-114.48,53.73
Alexis 9,-119.91,49.21
Alexis Cardinal River 234,-116.97,52.85
Alexis Creek 12,-124.23,52.24
Alexis Creek 13,-124.28,52.2
Alexis Creek 14,-124.31,52.2
Alexis Creek 15,-124.32,52.18
Alexis Creek 16,-124.31,52.17
Alexis Creek 17,-124.36,52.2
Alexis Creek 18,-124.35,52.2
Alexis Creek 20,-124.24,52.32
Alexis Creek 21,-124.26,52.31
Alexis Creek 22,-124.32,52.32
Alexis Creek 23,-124.34,52.3
Alexis Creek 24,-124.36,52.3
Alexis Creek 25,-124.4,52.29
Alexis Creek 26,-124.43,52.3
Alexis Creek 27,-124.41,52.32
Alexis Creek 28,-124.37,52.35
Alexis Creek 29,-124.4,52.37
Alexis Creek 30,-124.41,52.38
Alexis Creek 31,-124.4,52.42
Alexis Creek 32,-124.43,52.44
Alexis Creek 33,-124.46,52.45
Alexis Creek 34,-124.28,52.48
Alexis Creek 35,-124.23,52.43
Alexis Creek 6,-124.09,52.34
Alexis Elk River 233,-116.54,52.92
Alexis Thomas 1A,-125.24,53.74
Alexis Whitecourt 232,-115.81,54.22
Aleza Lake,-122.03,54.11
Alfred and Plantagenet,-74.91,45.58
Algoma Mills,-82.81,46.18
Algonquin,-75.66,44.7
Algonquin Highlands,-78.68,45.39
Algonquin Park,-78.59,45.55
Algrove,-103.88,52.48
Alhambra,-114.67,52.34
Alice,-77.29,45.75
Alice Beach,-105.16,50.92
Alixton 5,-122.13,51.8
Alkali Lake 1,-122.22,51.78
Alkali Lake 4A,-122.11,51.82
Alkhili 2,-133.67,59.61
Allains Creek,-65.52,44.73
Allainville,-65.25,47.3
Allan Mills,-77.72,44.4
Allan Park,-80.93,44.16
Allanburg,-79.2,43.07
Allandale,-67.29,45.9
Allans Corners,-77.09,45.67
Allan's Corners,-73.92,45.16
Allan's Island,-55.8,46.85
Allanwater Bridge,-90.16,50.23
Allard,-66.38,48.16
Allardville East,-65.38,47.5
Allen Hill,-64.71,45.4
Allen Rapids,-93.87,55.03
Allendale,-113.5,53.5
Allen's Mill,-71.96,46.9
Allensville,-79.3,45.26
Allenville,-64.7,45.37
Allenwood,-79.95,44.57
Allenwood Beach,-79.99,44.57
Alleyn-et-Cawood,-76.16,45.91
Allison,-64.91,46.06
Allison Bay 219,-111.03,58.77
Allisonville,-77.36,44.02
Alloa,-79.85,43.7
Allsaw,-78.61,44.98
Almira,-79.33,43.93
Almond Gardens,-118.5,49.01
Alnwick/Haldimand,-78.05,44.11
Alphonse Tommy 7,-126.63,55.31
Alpine Meadows,-122.96,50.15
Alpine Village,-79.475,43.995
Alport,-79.35,45.02
Alsace,-79.54,46.03
Alsfeldt,-80.94,44.01
Alsops Beach,-79.15,44.44
Alstonvale,-74.18,45.47
Alta Vista,-75.65,45.38
Altadore,-114.1,51.01
Altamont,-123.2,49.33
Altbergthal,-97.6,49.09
Althorpe,-76.47,44.75
Alticane,-107.48,52.9
Alton,-63.3,45.18
Alvanley,-81.11,44.53
Alvena,-106.01,52.51
Amazon,-105.45,51.55
Amber River 211,-118.94,58.89
Amberley,-81.71,44.04
Ambleside,-123.15,49.31
Amery,-94.06,56.56
Amesdale,-92.93,50.01
Amethyst Harbour,-88.87,48.54
Amherst Cove,-53.2,48.57
Amherst Head,-63.99,45.88
Amherst Point,-64.27,45.78
Amherst Pointe,-83.11,42.05
Amherst Range,-64.17,45.82
Amherst Shore,-63.89,45.96
Amherstview,-76.64,44.22
Amigari Downs,-78.94,42.92
Amigo Beach,-79.39,44.68
Amik Wachink Sakahikan,-94.96,54.25
Amiraults Hill,-65.97,43.81
Amisk Lake 184,-102.41,54.58
Amiskosakahikan 210,-102.14,54.44
Ammon,-64.84,46.16
Amostown,-66.2,46.53
Amsterdam,-102.45,51.74
Amulet,-79.02,48.29
Amulree,-80.83,43.42
Amyot,-84.95,48.48
Anagance,-65.25,45.86
Anagance Ridge,-65.31,45.88
Anahim 10,-122.93,52.26
Anahim 11,-122.93,52.29
Anahim 12,-122.97,52.3
Anahim 13,-122.99,52.26
Anahim 14,-123.0,52.28
Anahim 15,-123.02,52.29
Anahim 16,-123.08,52.33
Anahim 17,-123.06,52.36
Anahim 18,-123.2,52.43
Anahim 3,-123.07,52.18
Anahim 4,-123.07,52.2
Anahim 5,-123.01,52.2
Anahim 6,-123.0,52.21
Anahim 7,-122.96,52.18
Anahim 8,-122.95,52.21
Anahim 9,-122.94,52.22
Anahim's Flat 1,-123.16,52.03
Anahim's Meadow 2,-123.23,52.11
Anahim's Meadow 2A,-123.21,52.1
Anaqtl'a,-125.11,48.8
Ancaster,-80.01,43.2
Ancaster Heights,-79.96,43.23
Anchor Point,-56.78,51.23
Ancona Point,-78.61,44.5
Andak 9,-127.6,55.44
Anderson,-96.65,54.38
Anderson Lake,-81.73,46.23
Anderson Lake 5,-122.51,50.54
Anderson Mountain,-62.56,45.62
Anderson Settlement,-64.24,46.11
Andersonville,-67.25,45.42
Andimaul 1,-127.93,55.1
Andrew Bay,-94.63,54.44
Andrewsville,-75.82,44.95
Andy Cahoose Meadow 16,-125.73,52.88
Anerley,-107.31,51.36
Aneroid,-107.3,49.71
Anfield,-67.51,46.92
Angers,-75.49,45.52
Angevine Lake,-63.55,45.73
Anglia,-108.16,51.56
Anjou,-73.55,45.6
Anlaw 4,-127.67,55.29
Anmore,-122.85,49.31
Ann Island 7,-127.81,51.27
Annable Settlement,-75.35,45.1
Annan,-80.85,44.61
Annandale-Little Pond-Howe Bay,-62.41,46.28
Annapolis Valley First Nation,-64.65,45.06
Annidale,-65.78,45.79
Anniedale,-122.71,49.16
Annis,-119.08,50.79
Anoma Lea,-75.92,44.63
Ansnorveldt,-79.54,44.08
Anson,-77.59,44.29
Ansonia,-83.6,46.31
Ansonville,-80.68,48.75
Anthony,-80.59,48.53
Anthonys Cove,-66.0,45.22
Antigonish Harbour,-61.9,45.71
Antigonish Landing,-61.96,45.63
Antko 21,-120.76,50.08
Antrim,-63.35,44.96
Apex Mountain,-119.91,49.39
Appelo,-81.4,47.19
Apple River,-64.78,45.46
Appleby,-79.77,43.37
Appledale,-117.53,49.65
Appledore,-82.14,42.52
Applegrove,-72.18,45.08
Appleton,-54.85,48.98
Applewood Acres,-77.615,44.485
Applewood Heights,-79.59,43.6
Applewood Hills,-79.6,43.61
Applewood Park,-113.92,51.04
Apsagayu 1A,-126.48,50.73
Apto,-79.8,44.5
Aquadeo,-108.42,53.13
Aquaforte,-52.95,47.0
Arbakka,-96.47,49.05
Arbeatha Park,-75.82,45.31
Arbeau Settlement,-65.85,46.64
Arbor Vitae,-94.29,48.89
Arbour Lake,-114.2,51.13
Arbuthnot,-106.9,49.81
Arbutus Ridge,-123.16,49.25
Arcadia,-66.06,43.82
Ar-ce-wy-ee 4,-127.0,50.54
Archer,-75.1,44.98
Archibald Settlement,-66.06,47.87
Arctic Lake 10,-121.7,54.43
Ardath,-107.23,51.61
Ardbeg,-80.08,45.64
Ardendale,-76.94,44.72
Ardenode,-113.42,51.14
Ardness,-62.23,45.69
Ardoch,-76.9,44.93
Ardoise,-63.93,44.95
Ardrossan,-113.14,53.55
Ardtrea,-79.4,44.68
Arelee,-107.5,52.25
Argentia Beach,-114.01,53.05
Argosy,-67.7,46.98
Argyle,-97.45,50.18
Argyle Head,-65.85,43.82
Argyle Park,-104.62,50.49
Argyle Sound,-65.81,43.69
Argyll,-113.45,53.5
Arisaig,-62.16,45.76
Ariss,-80.36,43.57
Arkell,-80.16,43.53
Arklan,-76.34,45.08
Arkwright,-81.21,44.45
Arlington,-64.42,45.19
Arlington Beach,-105.23,51.24
Arlington East,-65.21,44.93
Arlington West,-65.27,44.91
Arlington Woods,-75.78,45.32
Armadale,-79.25,43.83
Armagh Station,-70.58,46.72
Armbro Heights,-79.74,43.67
Armdale,-63.62,44.63
Armena,-112.94,53.12
Armit,-101.78,52.83
Armitage,-79.47,44.03
Armley,-104.03,53.11
Armond,-67.38,46.41
Armour,-79.34,45.62
Armour Heights,-79.43,43.74
Armow,-81.51,44.19
Armstrong Brook,-65.96,47.91
Armstrong Industrial,-113.61,53.56
Armstrong Lake,-64.73,44.77
Armstrong Mills,-80.26,43.62
Armstrongs Corners,-76.3,44.93
Arnaud,-97.1,49.25
Arner,-82.82,42.03
Arnes,-96.99,50.8
Arnheim Place,-104.58,50.43
Arnold,-122.15,49.0
Arnott,-80.85,44.43
Arnstein,-79.93,45.92
Arntfield,-79.25,48.19
Aroland,-86.96,50.23
Aroland 83,-86.96,50.21
Arpin,-80.72,48.92
Arran,-101.71,51.88
Arran-Elderslie,-81.2,44.39
Arranvale,-81.14,44.45
Arras,-120.53,55.75
Arrow Creek,-116.45,49.13
Arrow River,-100.89,50.14
Arrowview Heights,-124.76,49.23
Arseneault,-61.77,47.41
Arthabaska,-71.92,46.04
Arthurville,-70.75,46.82
Artland,-109.88,52.7
Arundel,-74.61,45.96
Arva,-81.29,43.05
Arvida,-71.18,48.42
Asahal Lake 2,-122.01,52.14
Ascot,-71.9,45.37
Ascot Corner,-71.76,45.45
Ash,-79.81,43.43
Ashburn,-78.99,44.0
Ashburnham,-78.3,44.3
Ashby,-60.16,46.13
Ashby Mill,-77.82,44.46
Ashcroft 4,-121.31,50.72
Ashdad,-76.75,45.35
Ashdale,-62.04,45.52
Ashfield,-61.16,45.91
Ashfield-Colborne-Wawanosh,-81.59,43.88
Ashgrove,-79.89,43.6
Ashland,-67.46,46.31
Ashmore,-65.97,44.46
Ashnola 10,-120.0,49.21
Ashton,-76.03,45.15
Ashton Creek,-119.01,50.55
Ashton Station,-76.05,45.17
Ashville,-100.29,51.17
Ashworth,-79.4,45.34
Asimakaniseekan Askiy 102A,-106.58,52.12
Asimakaniseekan Askiy 102B,-106.7,52.12
Askilton,-61.3,45.69
Aspdin,-79.37,45.29
Aspen Gardens,-113.54,53.47
Aspen Park,-97.02,50.63
Asphodel-Norwood,-78.01,44.35
Aspotogan,-64.05,44.52
Aspy Bay,-60.48,46.92
Assabaska,-94.43,48.98
Asselstine,-76.73,44.24
Assiginack,-81.88,45.7
Assineau River 150F,-115.18,55.38
Assiniboia East,-104.57,50.43
Assiniboine 76,-103.53,50.34
Astle,-66.47,46.41
Aston Station,-72.27,46.18
Aston-Jonction,-72.23,46.16
Atchelitz,-122.01,49.11
Atha Road,-79.17,43.94
Athalmer,-116.01,50.51
Athapap,-101.68,54.57
Athelstan,-74.17,45.03
Atherley,-79.36,44.6
Atherton,-80.44,42.82
Athlone,-113.54,53.58
Athol,-64.21,45.67
Athol Road,-64.1,45.63
Atihkosanik Cree Nation,-95.75,55.3
Atikameg,-115.65,55.91
Atkinson,-63.72,45.63
Atlanta,-64.49,45.15
Atlantic,-65.33,43.58
Atlin-Teslin Indian Cemetery 4,-133.69,59.55
Atluck,-126.98,50.2
Atmore,-112.54,54.81
Attawapiskat 91,-84.31,53.58
Attawapiskat 91A,-82.42,52.92
Attercliffe,-79.58,42.99
Attercliffe Station,-79.59,42.96
Atwater,-102.22,50.77
Atwoods Brook,-65.65,43.5
Aubert-Gallion,-70.7,46.12
Aubigny,-97.24,49.45
Aubrey,-73.79,45.14
Auburn,-64.87,45.01
Auburn Mills,-78.3,44.31
Auburndale,-64.59,44.4
Auburnville,-65.12,47.0
Auclair,-68.65,47.73
Auden,-87.89,50.22
Audet,-70.73,45.65
Audley,-79.01,43.9
Augier Lake 22,-125.61,54.44
Augsburg,-77.18,45.52
Augusta,-75.6,44.75
Aulac,-64.28,45.87
Aulds Cove,-61.43,45.64
Aumond,-75.9,46.46
Aupe 6,-125.07,50.33
Aupe 6A,-125.06,50.33
Austin Heights,-122.86,49.25
Austin's Flat 3,-121.44,49.77
Auteuil,-73.76,45.63
Authier,-78.85,48.73
Authier-Nord,-78.86,48.83
Avalon,-106.65,52.09
Avening,-80.07,44.31
Avery Island 92,-130.75,54.21
Avery Point,-79.11,44.67
Avon,-66.04,46.06
Avonbank,-81.12,43.32
Avondale,-67.64,46.31
Avonhurst,-104.13,50.63
Avonry,-82.35,42.75
Avonton,-81.08,43.35
Axe Lake,-79.53,45.39
Aylechootlook 5,-122.1,49.12
Aylesbury,-105.69,50.93
Aylesford East,-64.81,45.02
Aylesford Lake,-64.67,44.96
Aylesford Mountain,-64.85,45.06
Aylesworth,-76.54,44.28
Aylsworth,-93.8,48.54
Aylwin,-76.02,45.98
Aylwin Station,-76.05,45.97
Aywawwis 15,-121.41,49.39
Azilda,-81.11,46.55
Azu Ski Village,-122.63,55.38
Babine 16,-126.64,55.32
Babine 17,-127.33,55.02
Babine 18,-127.38,55.03
Babine 25,-126.14,54.81
Babine 26,-126.12,54.95
Babine 6,-126.61,55.32
Babine Lake 20,-126.46,55.06
Babine Lake 21B,-125.64,54.49
Babine River 21,-126.68,55.41
Babine River 21A,-126.67,55.41
Baby Point,-79.49,43.65
Babys Point,-82.5,42.64
Baccaro,-65.47,43.47
Back Bay,-66.86,45.05
Back Centre,-64.35,44.36
Back Clarendon,-66.56,45.43
Back Cove,-56.56,49.84
Back Harbour,-54.78,49.65
Back Lots,-65.5,47.04
Bacon Cove,-53.17,47.48
Bacon Ridge,-99.0,51.0
Bacon's Bay,-72.02,45.18
Baddeck Bay,-60.71,46.12
Baddow,-78.75,44.61
Baden,-101.21,52.78
Badenoch,-80.08,43.47
Badger's Corners,-80.02,45.39
Badjeros,-80.28,44.25
Baezaeko River 25,-123.8,52.98
Baezaeko River 26,-123.81,52.98
Baezaeko River 27,-123.81,52.98
Bagdad,-65.86,45.92
Bagnall,-82.36,42.34
Bagot,-98.63,49.96
Bagotville,-70.89,48.34
Baie du Doré,-81.55,44.33
Baie Verte Road,-64.15,45.98
Baie-Carrière,-78.01,47.84
Baie-de-l'Ours,-75.12,45.87
Baie-des-Bacon,-69.27,48.52
Baie-des-Brises,-74.16,45.19
Baie-des-Capucins,-66.85,49.04
Baie-des-Cèdres,-79.45,47.3
Baie-des-Ha! Ha!,-58.97,50.92
Baie-de-Shawinigan,-72.76,46.53
Baie-des-Homards,-67.11,49.83
Baie-des-Rochers,-69.85,47.95
Baie-Dorval,-79.23,46.98
Baie-D'Urfé,-73.91,45.41
Baie-du-Tonnerre,-80.07,44.8
Baie-Jolie,-72.63,46.28
Baie-Laperrière,-79.44,47.29
Baie-Laval,-69.05,48.77
Baie-Noire,-75.19,45.6
Baie-Rouge,-58.95,50.82
Baie-Sainte-Anne,-64.95,47.05
Baie-Sainte-Catherine,-69.73,48.1
Baie-Saint-Ludger,-68.32,49.09
Baie-Trinité-Est,-67.28,49.42
Baie-Trinité-Ouest,-67.3,49.42
Baildon,-105.46,50.26
Bailey Corners,-80.81,46.61
Baileys Brook,-62.27,45.66
Bailieboro,-78.35,44.13
Baillie,-67.26,45.38
Baine Harbour,-54.89,47.36
Bains Corner,-65.64,45.33
Bainsville,-74.41,45.18
Baird,-89.42,48.42
Bairdsville,-67.71,46.63
Baker-Brook,-68.51,47.3
Bakers Brook,-57.95,49.65
Bakers Settlement,-64.67,44.39
Bala Park,-79.58,45.01
Balaclava,-78.855,45.035
Bald Rock,-63.58,44.46
Balderson,-76.32,44.95
Baldonnel,-120.68,56.2
Baldoon,-82.34,42.49
Baldwin,-80.545,45.29
Baldwin Mills,-71.9,45.03
Baldwins Bridge,-75.41,45.0
Baldwinton,-109.26,52.78
Baldy Hughes,-122.93,53.61
Balfour Beach,-79.49,44.26
Balfron,-63.23,45.67
Baljennie,-107.9,52.55
Balla Philip,-64.91,46.48
Ballantrae,-79.29,44.03
Ballantynes Cove,-61.92,45.85
Ballinafad,-80.01,43.69
Balls Creek,-60.31,46.14
Ballycanoe,-75.9,44.53
Ballycroy,-79.87,43.97
Ballydown Beach,-79.53,44.24
Ballyduff,-78.65,44.13
Ballyhack,-53.19,47.43
Ballymote,-81.23,43.06
Balm Beach,-80.0,44.69
Balmertown,-93.74,51.05
Balmoral Beach,-124.9,49.66
Balmoral Mills,-63.19,45.64
Balmy Beach,-80.94,44.61
Balone Beach,-105.6,52.66
Balsam,-79.06,43.98
Balsam Creek,-79.2,46.41
Balsam Grove,-76.53,44.24
Balsam Harbour,-96.57,50.48
Balsam Hill,-76.82,45.48
Baltics Corners,-74.79,45.32
Baltimore,-64.8,45.88
Balvenie,-77.06,45.26
Balwin,-113.45,53.58
Bamberg,-80.68,43.48
Banbury,-79.52,45.45
Banda,-80.06,44.28
Banff Trail,-114.11,51.06
Banff Training Area,-115.53,51.21
Bangor,-66.09,44.21
Bangor Lodge,-79.39,45.04
Bangs Falls,-64.83,44.24
Bankeir,-120.23,49.71
Bankend,-103.84,51.5
Bankfield,-87.08,49.69
Banks,-80.35,44.48
Bankview,-114.1,51.03
Banner,-80.98,43.0
Bannerman,-113.37,53.59
Bannon,-67.46,46.37
Bapaume,-107.66,53.38
Baptiste,-77.97,45.09
Baptiste Louis 8,-125.38,53.75
Baptiste Meadow 2,-122.55,51.99
Bar Point,-83.11,42.05
Bar River,-84.02,46.44
Bar Road,-67.05,45.09
Barachois-Nord,-64.29,48.63
Barachois-Ouest,-64.31,48.61
Baranow,-113.53,53.6
Barb,-74.53,45.51
Barbers Bay,-80.9,48.61
Barber's Beach,-80.27,43.42
Barclay,-79.61,44.29
Barcovan Beach,-77.62,44.02
Bar-de-Cocagne,-64.62,46.41
Bardsville,-79.43,45.09
Bare Island 9,-123.28,48.63
Bareneed,-53.24,47.57
Barford,-71.79,45.11
Baring,-103.05,50.25
Barkers Point,-66.62,45.95
Barkerville,-121.51,53.06
Barkfield,-96.8,49.33
Barkhouse Settlement,-62.37,44.94
Barkmere,-74.58,46.0
Barkway,-79.17,44.9
Barlochan,-79.48,45.03
Barlow Creek,-122.43,53.03
Barnaby River,-65.51,46.88
Barnesdale,-79.27,43.18
Barnet,-122.91,49.3
Barnettville,-65.8,46.76
Barneys River Station,-62.26,45.59
Barnhart,-93.78,48.72
Barnhartvale,-120.16,50.65
Barnston Island,-122.71,49.2
Barnston Island 3,-122.69,49.18
Barnston-Ouest,-71.96,45.1
Barons,-113.08,49.99
Barony,-67.18,45.97
Barr Settlement,-63.62,45.13
Barra Glen,-60.84,45.97
Barra Head,-60.78,45.67
Barrachois,-61.845,45.93
Barrage-McLaren,-75.65,45.84
Barrage-Mistigougèche,-68.02,48.17
Barrage-Sainte-Marguerite,-66.65,50.21
Barr'd Harbour,-57.05,50.81
Barren Hill,-60.59,45.68
Barrett Chute,-76.75,45.25
Barrett Lake,-126.75,54.45
Barretville,-82.85,42.09
Barrhaven,-75.76,45.27
Barrieau,-65.27,46.77
Barriefield,-76.46,44.24
Barriefield Range and Training Area,-76.46,44.24
Barrier Ford,-103.71,52.54
Barriere,-120.12,51.17
Barriere River 3A,-120.11,51.19
Barrière-de-Laterrière,-71.25,48.24
Barrière-Mésy,-71.67,48.26
Barrillia Park,-79.49,44.45
Barrington Passage,-65.6,43.52
Barrington West,-65.59,43.56
Barronsfield,-64.35,45.73
Barrow Bay,-81.22,44.95
Barrowtown,-122.1,49.1
Barrydowne,-80.94,46.51
Barrymere,-77.66,45.39
Barryvale,-76.72,45.28
Barsa Subdivision,-65.96,45.36
Barss Corner,-64.68,44.56
Barter Settlement,-67.33,45.2
Bartholomew,-65.9,46.7
Bartibog,-65.4,47.18
Bartibog Bridge,-65.34,47.09
Bartlett Island 32,-126.08,49.22
Bartlett Island 7,-125.08,50.32
Bartletts Mills,-67.12,45.2
Barton,-67.03,46.13
Bartonville,-79.8,43.23
Barville,-77.68,48.51
Barwick,-93.98,48.64
Bas-Cap-Pelé,-64.26,46.23
Bas-de-la-Baie,-70.51,47.41
Bas-de-l'Anse,-70.03,47.7
Bas-de-Sainte-Rose,-73.74,45.65
Base des Forces canadiennes Bagotville,-70.98,48.32
Base des Forces canadiennes Borden,-79.91,44.26
Base des Forces canadiennes Chilliwack,-121.96,49.1
Base des Forces canadiennes Cold Lake,-110.27,54.4
Base des Forces canadiennes Comox,-124.9,49.71
Base des Forces canadiennes Esquimalt,-123.42,48.43
Base des Forces canadiennes Gagetown,-66.45,45.83
Base des Forces canadiennes Goose Bay,-60.41,53.3
Base des Forces canadiennes Greenwood,-64.92,44.98
Base des Forces canadiennes Halifax,-63.58,44.65
Base des Forces canadiennes Kingston,-76.44,44.24
Base des Forces canadiennes Montréal,-73.42,45.5
Base des Forces canadiennes Moose Jaw,-105.55,50.34
Base des Forces canadiennes North Bay,-79.41,46.35
Base des Forces canadiennes Petawawa,-77.29,45.91
Base des Forces canadiennes Shilo,-99.63,49.8
Base des Forces canadiennes Suffield,-111.17,50.27
Base des Forces canadiennes Trenton,-77.54,44.11
Base des Forces canadiennes/unité de soutien de secteur Valcartier,-71.55,46.96
Basin Depot,-77.78,45.72
Basin Mines,-80.65,46.61
Basingstoke,-79.62,43.1
Baskin's Beach,-76.01,45.47
Basque 18,-121.32,50.63
Bass Creek,-82.01,45.8
Bass Lake Park,-79.48,44.61
Bass River Point,-65.04,46.55
Basse-Aboujagane,-64.41,46.13
Basse-Ville,-75.69,45.43
Bassin,-61.93,47.22
Bassin-du-Lièvre,-75.43,45.54
Basswood,-100.03,50.3
Basswood Ridge,-67.35,45.31
Bastarache,-64.89,46.45
Batchelor Hills,-120.36,50.71
Bateman,-106.74,50.0
Batemans Mills,-64.62,46.23
Bates Settlement,-67.32,46.0
Bateston,-59.9,46.0
Bathurst Mines,-65.79,47.4
Batiscan,-72.25,46.5
Bat-l-ki 3,-126.4,50.89
Batteaux,-80.17,44.46
Battrum,-108.33,50.55
Baturyn,-113.5,53.63
Bauline,-52.81,47.7
Baxters Corners,-75.79,45.16
Baxters Harbour,-64.51,45.22
Bay Beach,-79.07,42.86
Bay du Vin,-65.13,47.04
Bay du Vin Beach,-65.13,47.05
Bay Road,-67.22,45.21
Bay Road Valley,-60.47,46.96
Bay St. Lawrence,-60.46,47.0
Bay View,-65.49,45.37
Bayard,-74.82,46.36
Bayers Settlement,-63.14,44.74
Bayfield Inlet,-80.49,45.62
Bayham,-80.79,42.75
Bayhead,-63.36,45.73
Bayport,-64.31,44.32
Bayshore,-64.94,47.37
Bayshore Estates,-79.62,44.36
Bayswater,-66.13,45.35
Baytona,-54.78,49.33
Bayview,-114.1,50.96
Bayview Beach,-79.53,44.23
Bayview Heights,-108.39,53.13
Bayview Park,-79.81,44.85
Bayview Point,-80.94,44.61
Bayview Village,-79.38,43.77
Baywood Park,-79.43,44.51
Beach Grove,-123.05,49.03
Beach Meadows,-64.63,44.06
Beachcomber Bay,-119.37,50.24
Beachside,-55.89,49.64
Beacon Heights,-113.4,53.57
Beacon Hill,-109.65,54.35
Beacon Hill North,-75.6,45.45
Beacon Hill South,-75.59,45.44
Beaconia,-96.55,50.44
Beaconsfield,-67.58,46.045
Beadle,-109.0,51.46
Beales Mills,-75.97,44.57
Bealton,-80.22,42.99
Bear Bay 8,-124.95,50.83
Bear Cave,-79.6,45.31
Bear Cove,-63.54,44.53
Bear Creek,-108.94,56.29
Bear Island,-67.02,45.92
Bear Island 1,-80.07,46.98
Bear Lake (Fort Connelly) 4,-126.86,56.19
Bear Lake (Tsaytut Bay) 1B,-126.79,56.1
Bear Lake (Upper Driftwood River) 1A,-126.64,55.97
Bear Line,-82.29,42.44
Bear Mountain,-123.52,48.46
Bear Point,-65.65,43.48
Bear River,-65.63,44.57
Bear River (Sustut River) 3,-126.96,56.27
Bear River 6,-65.61,44.55
Bear River 6A,-65.47,44.66
Bear River 6B,-65.5,44.7
Bear River East,-65.59,44.6
Bear River North,-62.36,46.43
Bear River South,-62.35,46.38
Bear Valley,-79.71,45.96
Bearbrook,-75.33,45.38
Beardy's & Okemasis 96 & 97-A,-104.36,51.63
Beardy's & Okemasis 96 & 97-B,-106.45,52.8
Beardy's & Okemasis 96 & 97-C,-106.45,52.96
Beardy's 97 and Okemasis 96,-106.33,52.82
Bearspaw,-113.5,53.44
Beaton River 204 (North Half),-120.8,56.73
Beaton River 204 (South Half),-120.81,56.72
Beatrice,-79.38,45.15
Beatty,-76.74,45.02
Beaubassin East,-64.31,46.17
Beaubassin-Est,-64.31,46.17
Beaubier,-104.07,49.12
Beaucage,-79.65,46.35
Beauceville-Est,-70.76,46.2
Beauchampville,-75.42,45.57
Beaudoin-Centre,-71.57,45.87
Beaudry,-79.15,48.11
Beaufield,-109.1,51.75
Beaufort,-67.28,46.58
Beauglen,-65.94,48.26
Beaulac,-73.9,46.03
Beauly,-61.81,45.52
Beaumaris,-113.5,53.6
Beaumonde Heights,-79.57,43.74
Beaumont-Est,-70.96,46.8
Beauport,-71.18,46.86
Beaupré,-70.9,47.05
Beaurepaire,-73.88,45.41
Beauséjour,-68.53,48.37
Beauval Forks 1920,-107.7,55.1
Beauvallon,-111.36,53.65
Beaux-Rivages,-75.25,46.55
Beaver Bank,-63.68,44.82
Beaver Brook,-64.79,45.69
Beaver Brook Station,-65.6,47.12
Beaver Cove,-126.86,50.53
Beaver Crossing,-110.2,54.36
Beaver Dam,-66.69,45.78
Beaver Dams,-79.21,43.1
Beaver Falls,-117.58,49.08
Beaver Flat,-107.66,50.66
Beaver Harbour,-66.74,45.07
Beaver Islands 8,-124.5,54.46
Beaver Lake,-111.9,54.76
Beaver Lake 131,-111.87,54.66
Beaver Lake 17,-62.76,45.02
Beaver Meadow,-62.1,45.56
Beaver Mines,-114.19,49.45
Beaver Point,-123.38,48.76
Beaver Ranch 163,-115.74,58.43
Beaver Ranch 163a,-115.71,58.46
Beaver Ranch 163b,-115.79,58.52
Beaver River,-66.14,44.0
Beaverdale,-80.61,44.4
Beaverdam Lake,-65.42,43.66
Beaverley,-122.88,53.81
Beavers Corner,-80.01,43.07
Beaverstone Bay,-81.15,46.0
Bechard,-104.21,50.05
Becher,-82.35,42.65
Becher Bay 1,-123.59,48.33
Becher Bay 2,-123.59,48.32
Becketts Bridge,-79.37,42.97
Becketts Creek,-75.35,45.51
Becketts Landing,-75.68,45.05
Becketville,-65.99,47.89
Beckim Settlement,-67.72,46.3
Beckstead,-75.17,45.04
Beckwith,-63.81,45.83
Beddington Heights,-114.07,51.12
Bedec,-64.77,46.68
Bedell,-75.63,44.99
Bedell Settlement,-67.65,46.13
Bedeque,-63.72,46.33
Bedford Mills,-76.4,44.6
Bedford Park,-79.4,43.73
Bedford Range,-63.66,44.74
Bedford Road,-67.48,46.88
Beebe,-72.14,45.01
Beech Beach,-83.89,46.11
Beech Corners,-77.05,44.94
Beech Glen,-67.68,46.69
Beech Grove,-76.16,45.55
Beech Hill,-64.76,45.9
Beech Hill Farms,-64.79,43.98
Beechmont,-60.37,46.08
Beechmount,-77.96,45.06
Beechville,-63.68,44.63
Beechwood Park,-63.64,44.66
Beersville,-65.07,46.44
Bees 6,-128.74,53.92
Beeton,-79.78,44.08
Beinn Bhreagh,-60.71,46.11
Bel Air Heights,-75.75,45.35
Bel Air Park,-75.76,45.35
Bel Ayr Park,-63.51,44.67
Belair,-64.83,46.06
Bélair,-96.55,50.6
Bel-Aire,-114.08,51.0
Belanger,-81.13,46.56
Belangers Corner,-76.71,45.4
Belbutte,-107.81,53.36
Belcarra,-122.91,49.31
Belcher Street,-64.46,45.08
Belcourt,-77.35,48.4
Belcreft Beach,-82.98,42.01
Belfast,-81.55,43.91
Belford,-79.18,43.88
Belfountain,-80.01,43.79
Belgravia,-113.53,53.5
Belhaven,-79.42,44.26
Bell Ewart,-79.54,44.27
Bell Falls,-74.68,45.77
Bell Grove,-67.56,46.91
Bell Neck,-65.9,43.87
Bell Rapids,-77.79,45.38
Bella Bella,-128.14,52.16
Bella Bella 1,-128.15,52.15
Bella Coola 1,-126.72,52.37
Bella Lake Exchange Lands,-94.55,53.88
Bellamys,-75.79,44.7
Bellamys Mill,-76.02,44.72
Bellburns,-57.52,50.32
Belle Air Beach,-79.53,44.28
Belle Côte,-61.09,46.44
Belle Plaine,-105.15,50.39
Belle Vallée,-79.59,47.65
Belle-Anse,-64.22,48.62
Bellecombe,-78.93,48.09
Belledune River,-65.88,47.91
Belle-eau-Claire Beach,-80.05,44.72
Bellefeuille,-74.75,46.62
Bellefleur,-67.87,47.11
Bellefond,-65.64,47.11
Bellegarde,-101.54,49.53
Belleisle,-65.4,44.8
Belle-Marche,-60.99,46.61
Bellerive-sur-le-Lac,-74.99,46.39
Belle-Rivière,-74.09,45.62
Belleview,-100.85,49.6
Belleview Beach,-79.35,42.86
Belleville North,-65.93,43.86
Belleville South,-65.91,43.84
Bellevue,-113.895,51.57
Belley,-70.48,47.54
Bellheck,-76.96,44.52
Bellis,-112.15,54.14
Belliveau Village,-64.61,45.94
Bellmans Cove,-58.75,48.55
Bellrock,-76.76,44.47
Bells Corners,-76.09,45.125
Bells Crossing,-75.82,44.75
Bells Mills,-64.79,46.62
Bellsite,-101.05,52.59
Bellwood,-77.03,45.41
Belmeade,-75.49,45.12
Belmina,-71.47,45.98
Belmont Park,-123.46,48.43
Belmore,-81.18,43.95
Belnan,-63.52,44.99
Belton,-81.13,43.17
Belval,-70.81,46.54
Belvedere,-113.43,53.6
Belvédère,-73.9,45.35
Belvédère-Heights,-71.89,45.34
Belyeas Cove,-66.0,45.71
Ben Eoin,-60.45,45.96
Ben Lomond,-65.9,45.33
Benacadie,-60.72,45.94
Benalto,-114.27,52.3
Bénard,-97.84,49.91
Benchlands,-114.8,51.28
Bendale,-79.25,43.76
Benjamin River,-66.16,47.95
Benmiller,-81.62,43.72
Bennett Bay,-64.46,45.23
Bennies Corners,-76.26,45.25
Bennington,-80.95,43.19
Bennington Heights,-79.37,43.69
Benny,-81.62,46.78
Benoit,-64.96,47.48
Benoits Siding,-59.19,47.82
Bensfort Corners,-78.28,44.17
Benson,-103.01,49.45
Benson Corner,-67.19,45.21
Bent River,-79.54,45.21
Bentinck,-80.87,44.25
Bentinck Island Range,-123.54,48.31
Bentpath,-82.17,42.71
Benvoulin,-119.43,49.88
Benyks Point,-99.56,51.56
Berens River 13,-96.98,52.34
Bergland,-94.38,48.95
Bergman,-113.4,53.51
Berkshire Village,-81.27,42.96
Bernatchez,-70.11,46.63
Bernières,-71.35,46.68
Berriedale,-79.38,45.66
Berry,-78.26,48.81
Berry Mills,-64.93,46.1
Berry Mills Heights,-64.85,46.1
Berryton,-64.87,45.88
Berthier-sur-Mer,-70.73,46.91
Bertwell,-102.56,52.58
Bervie,-81.5,44.13
Berwick North,-64.74,45.05
Berwick West,-64.76,45.02
Berylvale,-80.99,48.95
Bessemer,-77.63,45.04
Best's Harbour,-54.21,47.57
Bestwick,-120.08,50.56
Béthanie,-72.43,45.5
Bethel,-66.91,45.15
Béthel,-72.35,45.58
Bethesda,-78.71666667,44.1
Bethune Bush,-75.24,45.05
Betsiamites,-68.69,49.03
Bettsburg,-66.25,46.46
Betty Creek 18,-125.4,52.91
Betula Beach,-114.66,53.54
Beulah,-101.03,50.26
Beveridge Locks,-76.13,44.87
Beverley,-107.96,50.26
Beverley Acres,-79.41,43.87
Beverley Hills,-79.47,44.19
Beverley Isles,-79.48,44.19
Beverly Heights,-113.4,53.56
Bexley,-78.91,44.65
Bickford,-82.42,42.76
Bidwell,-81.98,45.8
Bield,-101.15,51.22
Bieman's Corners,-80.99,44.0
Bienvenu,-79.23,48.8
Big Baddeck,-60.79,46.14
Big Bar Creek,-122.13,51.18
Big Bay Point,-79.51,44.4
Big Black River,-97.42,53.16
Big Bras d'Or,-60.41,46.28
Big Brook,-61.22,45.78
Big Cedar,-78.17,44.57
Big Cedar Point,-79.52,44.29
Big Chute,-79.67,44.88
Big Eddy,-118.21,51.0
Big Eddy Settlement,-101.32,53.85
Big Farm,-60.82,46.1
Big Fork,-93.67,48.52
Big Grassy River 35G,-94.3,49.05
Big Harbour,-60.6,46.14
Big Harbour Island,-60.94,45.86
Big Hole,-65.82,47.04
Big Hole Brook,-66.21,46.57
Big Hole Tract 8 (North Half),-65.79,47.06
Big Hole Tract 8 (South Half),-65.79,47.03
Big Horn 144A,-116.24,52.38
Big Intervale,-60.93,46.44
Big Intervale Cape North,-60.59,46.84
Big Island,-62.42,45.66
Big Island 31D,-94.63,49.12
Big Island 31E,-94.6,49.13
Big Island 31F,-94.64,49.16
Big Island 37,-94.76,49.17
Big Island Lake Cree Territory,-109.59,54.42
Big Island Mainland 93,-94.3,49.08
Big Joe's Meadow 7,-122.62,52.43
Big Lake,-63.86,44.52
Big Lots,-64.4,44.41
Big Marsh,-61.605,45.81
Big Pond,-60.52,45.92
Big Pond Centre,-60.57,45.88
Big Prairie Settlement,-116.32,55.59
Big Ridge,-60.21,45.94
Big River 118,-107.12,53.55
Big River 118A,-107.04,53.46
Big Shell,-107.13,53.19
Big White,-118.92,49.72
Bigelow,-79.51,47.29
Biggar Ridge,-67.28,46.54
Bigney,-63.0,45.72
Bigwin,-79.02,45.24
Bigwood,-80.6,46.03
Bihl' K' A 18,-125.38,55.0
Bihl' K'a Chah 20,-125.0,54.57
Bihlk'a 6,-124.9,54.56
Bill Lake 37,-130.05,54.4
Billings,-82.22,45.875
Billings Bridge,-75.67,45.38
Bill's Corners,-80.37,42.81
Billtown,-64.57,45.12
Bilodeau,-72.15,48.32
Binche 10,-124.27,54.58
Binche 12,-124.44,54.61
Binche 2,-124.5,54.57
Binche Bun 7,-124.43,54.61
Bindloss,-110.27,50.88
Binkham,-80.1,43.81
Binta Lake 2,-125.43,53.85
Birch Cliff,-79.27,43.68
Birch Cove,-114.36,53.95
Birch Grove,-59.95,46.12
Birch Haven,-79.41,46.32
Birch Hill,-63.17,45.2
Birch Landing,-96.59,50.65
Birch Manor,-75.76,45.42
Birch Plain,-60.43,46.5
Birch Point,-78.59,44.51
Birch Portage 184A,-102.6,54.88
Birch Ridge,-66.29,46.52
Bircham,-113.43,51.45
Birchcliff,-114.11,52.36
Birchland Manor,-122.75,49.26
Birchmount Park,-79.26,43.71
Birchton,-71.66,45.37
Birchtown,-65.38,43.74
Birchwood,-63.78,45.7
Birchy Cove,-56.02,49.68
Birchy Head,-64.04,44.57
Bird,-94.21,56.5
Bird Cove,-56.93,51.04
Birdell,-80.5,44.16
Birds Creek,-77.87,45.1
Birds Hill,-97.0,49.97
Bird's Point,-102.34,50.54
Birdsalls,-78.05,44.28
Birdtail Creek 57,-101.16,50.26
Birdtail Hay Lands 57A,-101.11,50.21
Birdtail Sioux,-101.15,50.26
Birdtail Sioux Dakota Nation 57C,-101.15,50.52
Birdton,-66.82,46.11
Birge Mills,-80.25,43.66
Birkendale,-78.97,45.29
Birmingham,-102.93,50.96
Birnam,-81.87,43.05
Birnie,-99.44,50.44
Birnie Island 18,-130.45,54.59
Birr,-81.33,43.12
Birsay,-106.98,51.1
Biscotasing,-82.1,47.29
Bishop Bluffs 10,-124.32,53.09
Bishop Bluffs 5,-124.3,53.06
Bishop Bluffs 6,-124.31,53.08
Bishop Corners,-77.17,44.78
Bishop's Cove,-53.23,47.63
Bishops Falls South,-55.49,49.0
Bishops Mills,-75.7,44.87
Bishopsgate,-80.4,43.1
Bishopville,-64.25,45.02
Bismarck,-79.5,43.04
Bisseltown,-75.67,44.68
Bisset,-113.39,53.45
Bissett Creek,-78.06,46.22
Bistcho Lake 213,-118.46,59.64
Bittern Lake 218,-105.82,53.89
Black Avon,-61.78,45.54
Black Bank,-80.15,44.22
Black Bay,-77.36,45.87
Black Bridge,-79.25,44.98
Black Brook,-61.03,45.77
Black Cape,-65.82,48.13
Black Creek,-125.13,49.83
Black Donald,-76.9,45.22
Black Duck Cove,-54.46,48.28666667
Black Duck Pond,-53.26,47.57
Black Horse Corner,-79.19,43.08
Black Lake,-71.36,46.04
Black Pines,-120.25,50.93
Black Point,-66.1,47.94
Black Rapids,-76.09,44.5
Black River,-65.545,46.115
Black River 9,-96.31,50.82
Black River Bridge,-65.28,47.0
Black River Lake,-64.37,44.97
Black River Road,-65.97,45.26
Black River-Matheson,-80.16,48.51
Black Rock,-65.23,47.74
Black Slate 11,-132.26,53.23
Black Sturgeon,-100.57,56.83
Blackburn,-75.54,45.43
Blackburn Hamlet,-75.56,45.43
Blackcomb,-122.94,50.11
Blacketts Lake,-60.32,46.06
Blackhead,-52.65,47.52
Blackheath,-79.82,43.07
Blackland,-66.75,46.595
Blackpool,-120.1,51.6
Blacks Corners,-78.76,44.14666667
Blackstock,-78.81,44.1
Blackstone,-61.3,46.12
Blackstone Lake,-79.88,45.24
Blackwater,-79.05,44.23
Blackwater 1,-122.88,53.33
Blackwater Meadow 11,-125.52,52.72
Blackwell,-82.31,43.02
Bladworth,-106.13,51.36
Blaeberry,-117.06,51.43
Blagousse,-70.37,47.47
Blair,-80.38,43.38
Blair Athol,-66.55,47.94
Blairhampton,-78.65,45.02
Blairs Settlement,-76.4,44.63
Blairton,-77.76,44.46
Blake,-81.65,43.45
Blakeney,-76.24,45.26
Blanchard Road,-62.47,45.47
Blanchards Hill,-76.09,44.78
Blanchard's Landing,-79.02,46.28
Blanche,-65.4,43.5
Blanche-Mills,-75.24,45.61
Blandford,-64.1,44.49
Blandford-Blenheim,-80.58,43.24
Blaney Ridge,-67.15,45.79
Blantyre,-80.63,44.5
Blessington,-77.26,44.26
Blewett,-117.4,49.47
Blezard,-78.09,44.29
Blezard Valley,-81.05,46.6
Blind Channel,-125.5,50.41
Blind Creek 6,-119.73,49.18
Blind Creek 6A,-119.75,49.19
Blink Bonnie,-80.64,43.29
Blissfield,-66.06,46.58
Block 14,-65.32,46.75
Blockhouse,-64.41,44.44
Blomidon,-64.36,45.22
Blood 148,-113.18,49.51
Blood 148A,-113.7,49.04
Bloodvein 12,-96.68,51.77
Bloomfield Ridge,-66.08,46.02
Bloomingdale,-80.46,43.5
Bloomington,-64.99,44.85
Bloomsburg,-80.29,42.88
Bloordale Gardens,-79.56,43.63
Blossom Park,-75.62,45.34
Blouin,-71.0,46.7
Blount,-80.02,43.96
Blowdown,-67.76,46.02
Blubber Bay,-124.61,49.78
Blucher,-106.2,52.01
Blucher Hall,-120.01,51.1
Blue Bell Corner,-67.61,46.94
Blue Church,-75.55,44.68
Blue Cove,-56.87,51.09
Blue Hill,-67.77,46.63
Blue Hills,-74.28,45.88
Blue Lake 24,-123.09,54.99
Blue Mountain,-63.475,45.175
Blue Mountain Bend,-67.27,47.09
Blue Mountain Settlement,-65.67,47.54
Blue Quill,-113.53,53.46
Blue Quill Estates,-113.52,53.45
Blue Quills First Nation,-111.37,53.99
Blue River 1,-128.96,59.7
Blue Rocks,-64.24,44.35
Blue Sea,-76.08,46.2
Blue Springs,-80.09,43.61
Blue Water Beach,-81.72,43.71
Blueberry River 205,-121.1,56.7
Blueridge,-122.99,49.32
Blues Mills,-61.19,45.92
Bluevale,-81.25,43.85
Bluewater Beach,-79.99,44.62
Blumenfeld,-97.95,49.05
Blumenheim,-106.41,52.4
Blumenhof,-107.7,50.01
Blumenort South,-97.65,49.0
Blumenthal,-106.38,52.48
Blytheswood,-82.59,42.12
Boat Harbour West 37,-62.65,45.65
Bobby Cove,-55.75,49.82
Bobs Lake,-76.65,44.64
Bocabec,-66.98,45.17
Bocabec Cove,-67.03,45.16
Bodmin,-107.0,53.75
Bogart,-77.24,44.49
Bogarttown,-79.42,44.04
Boggy Creek,-101.35,51.53
Bogies Beach,-81.72,43.81
Bognor,-80.74,44.52
Bogton,-73.5,45.06
Boharm,-105.71,50.4
Boileau,-74.76,45.91
Boilleau,-70.82,48.09
Bois-Blanc,-65.08,47.62
Boisbriand,-73.83,45.61
Bois-Brûlé,-64.29,48.71
Boischatel,-71.15,46.9
Boisdale,-60.5,46.09
Bois-des-Bel,-69.43,47.95
Bois-des-Filion,-73.75,45.66
Bois-Franc,-75.98,46.5
Bois-Gagnon,-65.17,47.52
Boishébert,-64.98,47.56
Boisjoli,-64.75,46.45
Boisville,-61.93,47.37
Boland's Bay,-80.76,46.65
Bolger,-80.11,45.68
Bolingbroke,-76.51,44.75
Bolsover,-79.05,44.53
Bolton Centre,-72.35,45.2
Bolton Forest,-72.28,45.29
Bolton Glen,-72.43,45.2
Bolton-Est,-72.35,45.2
Bolton-Ouest,-72.45,45.23
Bon Air,-80.57,46.01
Bon Echo,-77.19,44.89
Bona Vista,-79.07,45.26
Bonaparte 3,-121.36,50.85
Bonarlaw,-77.62,44.42
Bonaventure Industrial,-113.56,53.58
Bonaventure-Est,-65.46,48.02
Bonavista,-53.1,48.63
Bonavista Downs,-114.03,50.94
Bond Head,-79.67,44.08
Bon-Désir,-69.47,48.27
Bondi Village,-79.01,45.29
Bondiss,-112.69,54.59
Bongard,-76.95,44.05
Bongard Corners,-76.92,44.05
Boninville,-81.09,46.59
Bonnechere,-77.57,45.64
Bonnechere Valley,-77.13,45.45
Bonne-Espérance,-57.66,51.38
Bonnet Hill,-122.61,53.9
Bonney Road,-65.84,45.47
Bonnie Beach,-79.3,44.56
Bonnie Doon,-113.46,53.51
Bonnington Falls,-117.48,49.46
Bonnyville Beach,-110.86,54.23
Bonsecours,-72.28,45.41
Bon-Secours,-65.03,46.36
Bonshaw,-63.35,46.19
Bonville,-74.82,45.12
Bookton,-80.5,42.94
Boom Road,-65.78,46.95
Bootahnie 15,-121.53,50.4
Booth,-79.33,46.19
Booth Landing,-79.2,46.14
Boothroyd,-121.48,49.96
Boothroyd 13,-121.49,49.98
Boothroyd 5A,-121.48,49.98
Boothroyd 5B,-121.49,49.96
Boothroyd 5C,-121.47,49.96
Boothroyd 6A,-121.5,50.0
Boothroyd 6B,-121.51,50.01
Boothroyd 8A,-121.53,50.04
Boothville,-80.62,44.14
Bordeaux,-73.69,45.54
Borden Farm,-75.73,45.35
Borden Range and Training Area,-79.95,44.27
Bordenwood,-77.04,44.71
Borneo,-61.9,45.28
Bornholm,-81.14,43.53
Bornish,-81.67,43.1
Borups Corners,-92.32,49.58
Boscobel,-72.39,45.5
Boskung,-78.75,45.07
Boston,-80.09,43.27
Boston Bar 10,-121.4,49.85
Boston Bar 11,-121.45,49.8
Boston Bar 1A,-121.42,49.83
Boston Bar 8,-121.42,49.84
Boston Bar 9,-121.43,49.87
Boston Creek,-79.93,48.01
Boston Mills,-79.92,43.76
Boswarlos,-58.82,48.57
Boswell,-116.76,49.45
Bosworth,-80.64,43.78
Botany,-81.98,42.49
Bothwell's Corner,-80.87,44.57
Botsford Portage,-64.24,46.19
Bottle Lake 61B,-100.17,50.62
Boucher,-68.34,47.4
Bouchie Lake,-122.6,53.01
Boucks Hill,-75.21,44.98
Boudreau,-64.48,46.22
Boudreau Road,-64.94,47.63
Boudreau Village,-64.6,45.91
Boudreau-Corners,-71.76,45.17
Boudreauville,-60.96,45.5
Bougainville,-64.26,48.65
Boularderie Centre,-60.52,46.19
Boularderie East,-60.47,46.23
Boulder Creek 5,-120.13,51.46
Boulderwood,-63.59,44.62
Boulogne,-72.65,45.84
Boulter,-77.63,45.21
Boundary,-68.72,47.37
Boundary Bay,-123.03,49.0
Boundary Creek,-65.0,46.05
Bourdages Corner,-84.29,46.72
Bourdeau,-79.54,45.5
Bourgault,-70.28,47.19
Bourgeois,-64.53,46.35
Bourgeois Mills,-64.41,46.17
Bourg-la-Reine,-71.25,46.89
Bourg-Louis-Station,-71.77,46.85
Bourg-Royal,-71.25,46.88
Bourkes,-80.22,48.29
Bourlamaque,-77.76,48.1
Bowen Corner,-77.69,45.07
Bowen Island,-123.34,49.37
Bowermans,-77.36,44.0
Bowers Beach,-80.14,44.48
Bowling Green,-80.25,43.94
Bowman,-75.66,45.91
Bown,-71.42,45.47
Bowness,-114.16,51.08
Bowood,-81.53,43.08
Bowser,-124.66,49.43
Box Alder,-93.67,48.56
Box Grove,-79.23,43.85
Boyds,-76.25,45.09
Boyds Corner,-66.82,46.26
Boyer,-70.87,46.85
Boyer 164,-116.26,58.45
Boyer Settlement,-116.06,58.45
Boyle Street,-113.47,53.55
Boylston,-61.5,45.43
Boyne,-79.83,43.48
Boynton,-72.08,45.11
Brabant,-103.75,56.11
Bracken,-108.09,49.17
Brackenrig,-79.52,45.11
Brackley,-63.14,46.3
Brada,-108.18,52.71
Bradburn Subdivision,-80.75,42.87
Bradens Bay,-79.49,44.45
Bradley,-81.85,43.29
Bradley Corner,-67.7,46.39
Bradlo,-83.64,49.6
Brador,-57.24,51.46
Bradshaw,-79.455,43.71
Bradwardine,-100.46,49.99
Bradwell,-106.23,51.94
Brady Lake,-78.83,45.04
Braeheid Survey,-79.91,43.33
Braemar,-80.84,43.19
Braemar Heights,-123.5,48.41
Braemar Park,-75.75,45.36
Braeshore,-62.65,45.7
Bralorne,-122.81,50.76
Bramalea,-79.71,43.72
Bramalea Woods,-79.73,43.71
Bramber,-64.14,45.18
Brancepeth,-105.26,53.0
Branch LaHave,-64.62,44.44
Branchton,-80.26,43.3
Brander Gardens,-113.57,53.49
Brandy Point,-81.22,43.43
Brant Hills,-79.84,43.36
Bras d'Or,-60.28,46.25
Bras-d'Apic,-70.18,46.95
Brass Hill,-65.6,43.55
Brasset,-64.57,48.81
Bray Lake,-79.41,45.88
Brazeau Dam,-115.58,52.97
Brazil Lake,-66.0,43.99
Bread and Cheese,-52.79,47.31
Breadalbane,-65.88,46.73
Breau Creek,-64.51,45.96
Breau Road,-65.12,47.29
Breault,-72.33,46.19
Breau-Village,-64.63,46.37
Brébeuf,-74.66,46.06
Brèche-à-Manon,-64.44,48.4
Brechin Beach,-79.2,44.53
Brechin Point,-79.2,44.53
Breckenridge,-75.95,45.47
Bremen,-105.7,52.36
Brennan's Hill,-75.95,45.78
Brent,-78.48,46.03
Brentha,-79.9,47.78
Brenton,-66.04,43.96
Brent's Cove,-55.7,49.93
Brentwood,-114.13,51.08
Brentwood Bay,-123.45,48.58
Brentwood Park,-122.99,49.27
Bresaylor,-108.76,52.96
Brest,-65.0,46.46
Bretagneville,-65.03,46.71
Brethour,-79.56,47.71
Breton Cove,-60.46,46.45
Brevoort Park,-106.61,52.11
Brew Bay,-124.38,49.76
Brewer Lake,-76.32,44.4
Brewers Mills,-67.01,46.06
Brewster Bay,-96.98,50.77
Briar Lake,-65.96,44.14
Briargreen,-75.78,45.33
Briars Park,-79.34,44.32
Brickley,-77.93,44.25
Brickton,-65.12,44.9
Bridal Falls,-121.73,49.18
Bridesville,-119.15,49.03
Bridge End,-74.44,45.26
Bridge Lake,-120.71,51.48
Bridge River 1,-122.02,50.79
Bridge River 2,-121.86,50.79
Bridgedale,-64.73,46.06
Bridgeford,-106.41,50.93
Bridgeland,-114.03,51.05
Bridgeport,-59.99,46.2
Bridgetown East,-65.24,44.85
Bridgetown North,-65.29,44.85
Bridgeview,-122.86,49.21
Bridgeview Survey,-79.9,43.3
Bridgeville,-62.6,45.43
Bridlewood,-114.11,50.9
Brier Hill,-76.16,44.55
Brier Industrial Estates,-110.72,50.05
Brierly Brook,-62.06,45.6
Brigade Lake,-120.3,50.5
Briggs Corner,-66.78,46.215
Briggs Spur,-100.65,52.07
Brigham,-72.85,45.25
Brigham Creek 3,-123.29,51.76
Brighouse,-123.13,49.16
Bright,-80.65,43.26
Brighton Beach,-81.28,43.275
Brightside,-76.49,45.12
Brightstone,-96.16,50.28
Brill,-72.43,45.26
Brilliant,-117.64,49.32
Brimstone,-80.0,43.8
Brinkman's Corners,-81.39,45.14
Brinsley,-81.53,43.2
Brinston,-75.35,44.93
Brisay,-70.51,54.44
Brisbane,-80.07,43.74
Brise-du-Lac,-74.04,46.1
Brisson,-75.32,45.29
Bristol Mines,-76.34,45.49
Bristol Ridge,-76.41,45.62
Bristol's Hope,-53.19,47.72
Britainville,-82.4,45.73
Britannia,-114.08,51.0
Britannia Bay,-75.79,45.36
Britannia Heights,-75.78,45.36
Britannia Road,-79.17,45.27
Britannia Youngstown,-113.6,53.54
British Properties,-123.13,49.35
British Settlement,-64.38,45.87
Britton,-80.92,43.67
Broad Cove,-54.22,47.57
Broad Cove Banks,-61.32,46.22
Broad Cove Chapel,-61.26,46.25
Broad Cove Marsh,-61.25,46.29
Broad Valley,-97.65,50.98
Broadacres,-108.98,52.05
Broadbent,-79.83,45.44
Broadlands,-66.76,48.0
Broadmoor,-123.13,49.15
Broadview Gardens,-84.38,46.54
Broadway,-62.36,45.57
Brochet 197,-101.58,57.9
Brock Gardens,-80.0,43.29
Brock Road,-79.08,43.88
Brocklehurst,-120.41,50.7
Brockley,-81.19,42.91
Brocks Beach,-80.1,44.46
Brocksden,-80.88,43.38
Brockton,-81.24,44.18
Brockway,-67.11,45.52
Broderick,-106.91,51.48
Broders Annex,-104.58,50.44
Brodeur,-76.06,46.5
Brodhagen,-81.2,43.56
Brodie,-77.76,45.945
Brokenhead 4,-96.6,50.35
Brome-Centre,-72.59,45.22
Bromhead,-103.66,49.18
Bromley,-76.88,45.53
Brompton,-71.94,45.47
Bronson,-77.78,45.06
Bronson Settlement,-65.72,46.22
Bronte,-79.71,43.38
Brook Cove,-72.22,45.17
Brook Village,-61.3,46.05
Brookbury,-71.53,45.53
Brooke,-76.43,44.85
Brooke-Alvinston,-81.9,42.86
Brookland,-62.92,45.55
Brooklet,-74.04,45.0
Brooklyn Corner,-64.57,45.08
Brooklyn Road,-64.26,45.97
Brooks Landing,-80.33,45.43
Brooks Mill,-79.01,45.42
Brooksby,-104.31,53.0
Brooksdale,-80.93,43.22
Brookside,-113.65,53.49
Brookswood,-122.66,49.06
Brookvale,-65.68,45.98
Brookville,-67.73,46.34
Brossard,-73.45,45.46
Brosseau,-111.68,53.79
Brotherston,-80.96,43.81
Brougham,-79.1,43.91
Broughdale,-81.25,43.0
Broughton,-59.97,46.08
Broughton Station,-71.13,46.17
Broulan Reef,-81.13,48.51
Brouse,-117.75,50.21
Brouseville,-75.42,44.83
Brow of the Mountain,-64.56,45.16
Brower,-80.83,49.01
Brown Hill,-79.32,44.22
Brown House Corner,-74.56,45.22
Brown Industrial,-113.56,53.58
Browning,-102.63,49.45
Browning Island,-79.4,44.99
Brownlee,-106.01,50.73
Browns Brae,-79.03,45.21
Browns Corner,-66.14,45.51
Brown's Corners,-79.35,43.84
Brown's Hill,-72.1,45.13
Browns Yard,-65.07,46.52
Brownsburg-Chatham,-74.41,45.68
Brownsville,-80.83,42.86
Bruce,-112.03,53.17
Bruce Farm,-75.8,45.33
Bruce Station,-83.76,46.31
Brucedale,-80.18,43.64
Brucefield,-81.51,43.52
Bruces,-80.25,43.27
Bruceton,-77.39,45.21
Brucy,-73.95,45.4
Brudenell,-77.39,45.44
"Brudenell, Lyndoch and Raglan",-77.41,45.33
Brule,-63.17,45.73
Brule Point,-63.19,45.75
Brule Shore,-63.23,45.74
Brumsfield,-77.13,45.81
Brunet,-75.44,46.52
Brunette Creek,-122.88,49.23
Brunetville,-82.4,49.41
Brunkild,-97.57,49.59
Brunner,-80.92,43.52
Brunskill,-106.64,52.12
Brunswick,-78.58,44.2
Bruxelles,-98.91,49.48
Bryanston,-81.26,43.12
Bryants Corner,-65.19,46.47
Bryant's Cove,-53.19,47.67
Bryant's Landing,-72.23,45.18
Bryenton,-65.68,46.87
B-Say-Tah,-103.83,50.78
Buck Creek,-114.89,53.1
Buck Lake 133C,-114.66,52.88
Buckfield,-64.78,44.3
Buckham's Bay,-76.1,45.49
Buckhorn,-122.65,53.8
Buckingham Heights,-122.95,49.23
Buckinghorse River,-122.85,57.38
Buckland,-70.54,46.61
Bucklaw,-60.97,46.02
Buckley,-84.36,46.53
Buckley Bay,-124.85,49.53
Buckley Settlement,-65.26,45.9
Bucktum 4,-121.44,49.91
Buctouche 16,-64.76,46.45
Buctouche-Sud,-64.7,46.46
Budd Mills,-77.25,45.63
Budd's Point 20D,-102.12,53.98
Buena Vista,-105.8,51.44
Buffalo Creek,-121.15,51.73
Buffalo Gap,-105.26,49.11
Buffalo Head Prairie,-116.34,58.05
Buffalo Heights,-78.99,42.89
Buffalo Lake,-119.02,55.37
Buffalo Lake Metis Settlement,-112.43,54.48
Buffalo Point,-95.23,49.01
Buffalo Point 36,-95.26,49.01
Buffalo Point First Nation 1,-95.38,49.0
Buffalo Point First Nation 2,-95.3,49.07
Buffalo Point First Nation 3,-95.35,49.0
Buffalo Rock,-79.36,47.01
Buffalo-Ankerite,-81.26,48.43
Buford,-113.93,53.24
Bugeaud,-65.23,48.05
Bulgers Corners,-77.02,45.59
Bulkley 1,-127.4,55.2
Bulkley River 19,-127.31,55.03
Bull Lake,-67.38,46.1
Bull Moose Hill,-65.77,45.72
Buller,-78.75,44.79
Buller Siding,-77.37,44.44
Bullock,-76.47,45.1
Bullocks Corners,-79.98,43.27
Bulls Cove,-55.16,47.05
Bulls Creek,-67.55,46.09
Bulwer,-71.69,45.34
Bulyea,-104.86,50.98
Bummers Flat 6,-115.68,49.65
Bunessan,-80.71,44.19
Bunker Hill,-75.02,45.04
Bunyan,-82.27,42.93
Bur Creek,-76.56,44.29
Burchell Lake,-90.59,48.6
Burchills Flats,-65.57,45.37
Burdick Range,-105.38,50.4
Burditt Lake,-93.8,48.92
Burgerville,-75.84,46.17
Burgess Mines,-77.7,45.26
Burgess Settlement,-67.56,47.08
Burgessville,-80.65,43.02
Burgis Beach,-102.62,51.54
Burgoyne,-81.31,44.43
Burin Bay,-55.17,47.02
Burin Bay Arm,-55.19,47.08
Burke Settlement,-76.73,44.85
Burketon Station,-78.79,44.05
Burkeville,-123.15,49.18
Burks Corners,-75.15,45.67
Burleigh Falls,-78.21,44.56
Burlington Beach,-79.8,43.3
Burnaby Heights,-123.0,49.28
Burnbrae,-77.7,44.32
Burnet,-75.85,45.56
Burnhamthorpe,-79.59,43.62
Burnley,-78.0,44.15
Burns,-80.84,43.63
Burns Lake 18,-125.76,54.23
Burnside,-110.73,50.04
Burnside Heights,-110.75,50.05
Burnstick Lake,-114.89,51.98
Burnstown,-76.57,45.38
Burnsville,-65.14,47.7
Burnt Church,-65.14,47.19
Burnt Cliff Islands 20,-130.46,54.49
Burnt Cove,-52.85,47.19
Burnt Creek,-66.88,54.81
Burnt Hill,-67.34,45.17
Burnt Hills,-76.3,44.45
Burnt Island,-54.7,47.38
Burnt Islands,-58.87,47.61
Burnt Point,-53.03,47.95
Burnt River,-78.69,44.67
Burnt Stump,-53.15,47.39
Burnt Village,-55.98,51.16
Burntcoat,-63.79,45.31
Burntland Brook,-67.33,46.99
Burpee,-82.57,45.78
Burpee and Mills,-82.59,45.79
Burpees Corner,-66.33,45.86
Burquitlam,-122.88,49.26
Burr,-77.38,44.04
Burrard Inlet 3,-122.97,49.3
Burridge,-76.54,44.65
Burriss,-93.67,48.67
Burritts Rapids,-75.79,44.98
Burrows,-102.13,50.31
Burtch,-80.26,43.06
Burtons Cove,-56.86,49.55
Burwash,-80.85,46.23
Burys Green,-78.67,44.61
Bush Glen,-75.09,45.04
Bush Island,-64.37,44.23
Bushe River 207,-116.97,58.48
Bushville,-65.51,47.01
Busy Bee Corners,-83.03,42.09
Butchers,-53.37,47.87
Butler,-101.36,49.79
Butte-D'Or,-65.2,47.54
Butter Cove,-53.64,48.02
Buttermilk Falls,-78.74,45.09
Butternut Bay,-75.78,44.51
Buttonville,-79.36,43.86
Buzwah,-81.78,45.75
Byemoor,-112.28,51.97
Byers Lake,-63.41,45.59
Byersville,-78.35,44.28
Byng,-79.62,42.89
Byng Inlet,-80.55,45.76
Byrnedale,-82.66,42.24
Byron,-81.33,42.95
Cabbagetown,-79.36,43.66
Cache Bay,-79.98,46.37
Cachet,-79.34,43.88
Cacouna Indian Reserve 22,-69.5,47.91
Cacouna-Est,-69.42,47.99
Cacouna-Station,-69.45,47.89
Cacouna-Sud,-69.46,47.94
Cadboro Bay,-123.3,48.46
Caderette,-80.03,46.37
Cadman Corner,-64.02,46.17
Cadmus,-78.76,44.11
Cadogan,-110.44,52.31
Caernarvon,-113.52,53.61
Caesarea,-78.83,44.15
Cahill Point,-52.69,47.56
Cahoose 10,-125.41,52.58
Cahoose 12,-125.65,52.91
Cahoose 8,-125.68,52.87
Cahore,-75.19,45.17
Cails Mills,-65.14,46.48
Cains Island,-58.69,47.6
Cains Mountain,-60.91,45.98
Cains Point,-65.1,47.34
Cainsville,-80.19,43.14
Caintown,-75.88,44.52
Cairngorm,-81.66,42.9
Cairo,-81.89,42.7
Caissie Cape,-64.53,46.33
Caissie-Village,-64.75,46.57
Caistor Centre,-79.65,43.07
Caistorville,-79.71,43.05
Caithness,-115.16,49.31
Calais,-117.53,55.07
Calamity Corners,-81.28,43.02
Calderbank,-106.85,50.61
Calderwood,-80.86,44.01
Caldwell,-67.69,47.06
Caledon East,-79.86,43.86
Caledonia Front,-74.72,45.54
Caledonia Mills,-61.79,45.48
Caledonia Mountain,-64.8,45.85
Caledonia Springs,-74.8,45.54
Calhoun,-64.58,46.06
Caliento,-96.41,49.13
California,-76.375,44.875
Californie,-73.23,46.34
Caliper Lake,-93.89,49.06
Calixa-Lavallée,-73.28,45.75
Callingwood North,-113.62,53.5
Callingwood South,-113.62,53.5
Call's Mills,-72.61,45.18
Callum,-80.62,46.51
Calton,-80.85,42.71
Calumet,-74.63,45.65
Calvin,-78.91,46.25
Calvin Park,-76.52,44.23
Calway,-70.81,46.27
Camborne,-78.21,44.03
Cambria,-112.59,51.39
Cambrian Heights,-114.08,51.08
Cambridge Forest Estates,-75.25,45.35
Camden,-63.18,45.3
Camel Chute,-77.11,45.18
Camelot Beach,-79.3,42.87
Cameron,-78.43,44.38
Cameron Bar 13,-121.67,50.39
Cameron Falls,-88.34,49.15
Cameron Heights,-124.8,49.21
Cameron Settlement,-62.49,45.28
Camerons Mill,-65.1,46.67
Camerons Point,-74.53,45.07
Camilla,-80.11,43.99
Camlachie,-82.16,43.03
Camp Bay,-55.65,52.16
Camp Bigwee,-80.11,47.01
Camp Boggy,-55.8,47.98
Camp Cayuga,-80.11,47.0
Camp Champlain,-79.29,46.32
Camp Chimo,-80.08,46.92
Camp des Forces canadiennes Chilcotin,-122.55,52.08
Camp des Forces canadiennes Nanaimo,-123.98,49.15
Camp des Forces canadiennes Vernon,-119.28,50.24
Camp Harmony,-66.95,47.89
Camp Kagawong,-78.82,44.55
Camp Oconto,-76.68,44.69
Camp Robinson,-93.22,50.13
Camp Wanapitei,-80.06,47.16
Camp White Bear,-80.14,46.87
Campania,-80.3,43.98
Campbell Hill,-62.9,45.63
Campbell Island,-128.14,52.16
Campbell River 11,-125.25,50.03
Campbell Settlement,-66.86,45.91333333
Campbellcroft,-78.37,44.06
Campbells Beach,-79.11,44.61
Campbells Corners,-75.56,44.9
Campbells Cross,-79.86,43.78
Campbelltown,-78.23,44.21
Campbellville,-79.98,43.48
Campden,-79.43,43.13
Camper,-98.26,51.07
Camperdown,-64.6,44.26
Camperville,-100.14,51.98
Campobello Island,-66.91,44.88
Camp-Ouareau,-74.11,46.25
Camsell Lake 30,-124.85,54.51
Camsell Portage,-109.27,59.61
Cana,-102.65,50.88
Canaan,-65.06,46.24
Canaan Forks,-65.54,46.05
Canaan Rapids,-65.74,45.93
Canaan Road,-65.34,46.03
Canada Creek,-64.74,45.16
Canada Hill,-65.12,43.8
Canadian Forces Base Bagotville,-70.98,48.32
Canadian Forces Base Borden,-79.91,44.26
Canadian Forces Base Chilliwack,-121.96,49.1
Canadian Forces Base Cold Lake,-110.27,54.4
Canadian Forces Base Comox,-124.9,49.71
Canadian Forces Base Esquimalt,-123.42,48.43
Canadian Forces Base Gagetown,-66.45,45.83
Canadian Forces Base Goose Bay,-60.41,53.3
Canadian Forces Base Greenwood,-64.92,44.98
Canadian Forces Base Halifax,-63.58,44.65
Canadian Forces Base Kingston,-76.44,44.24
Canadian Forces Base Montréal,-73.42,45.5
Canadian Forces Base Moose Jaw,-105.55,50.34
Canadian Forces Base North Bay,-79.41,46.35
Canadian Forces Base Petawawa,-77.29,45.91
Canadian Forces Base Shilo,-99.63,49.8
Canadian Forces Base Suffield,-111.17,50.27
Canadian Forces Base Trenton,-77.54,44.11
Canadian Forces Base/Area Support Unit Valcartier,-71.55,46.96
Canadian Forces Camp Chilcotin,-122.55,52.08
Canadian Forces Camp Nanaimo,-123.98,49.15
Canadian Forces Camp Vernon,-119.28,50.24
Canadian Forces Station Aldergrove,-122.48,49.07
Canadian Forces Station Flin Flon,-101.97,54.72
Canadian Forces Station Holberg,-128.07,50.66
Canadian Forces Station Leitrim,-75.58,45.33
Canadian Forces Station Masset,-132.1,54.02
Canadian Forces Station St. John's,-52.67,47.58
Canadian Heights,-64.83,46.11
Canal,-66.82,45.15
Canard,-64.43,45.13
Canborough,-79.67,42.99
Candiac,-73.51,45.38
Candyville,-80.98,42.69
Cane,-80.06,47.62
Canfield,-79.75,42.97
Canim Lake,-120.9,51.76
Canim Lake 1,-121.0,51.78
Canim Lake 2,-121.12,51.74
Canim Lake 3,-121.21,51.77
Canim Lake 4,-121.47,51.79
Canim Lake 5,-120.63,51.88
Canim Lake 6,-120.61,51.9
Cankerville,-77.76,44.06
Cann,-73.88,47.9
Cannamore,-75.24,45.19
Cannes-de-Roches,-64.29,48.54
Cannifton,-77.39,44.2
Cannington Lake,-102.16,49.78
Canobie,-65.36,47.68
Canobie South,-65.33,47.67
Canoe,-119.23,50.75
Canoe Creek 1,-122.15,51.46
Canoe Creek 2,-122.05,51.43
Canoe Creek 3,-122.25,51.53
Canoe Lake,-78.72,45.57
Canoe Lake 165,-108.19,55.12
Canoe Lake 165A,-108.39,55.15
Canoe Lake 165B,-108.11,55.18
Canonto,-76.77,45.06
Canoona 2,-128.58,53.07
Canoose,-67.35,45.37
Canopus,-106.2,49.2
Cantal,-101.93,49.43
Cantin Lake,-95.15,53.42
Cantley,-75.78,45.56
Canton-Arnaud,-66.5,50.24
Canton-Jetté,-67.56,48.26
Canton-Pelletier,-72.3,49.01
Canton-Tremblay,-71.1,48.48
Cantuar,-108.0,50.38
Canuck,-108.21,49.2
Canupawakpa Dakota First Nation,-100.93,49.62
Canyon,-116.45,49.08
Canyon Alpine,-121.44,49.91
Canyon Creek,-115.09,55.37
Canyon Heights,-123.1,49.35
Canyon Lake (Ormonde Lake) 7,-124.69,54.18
Canyon Meadows,-114.08,50.95
Cap La Ronde,-60.91,45.57
Cap Le Moine,-61.07,46.49
Cap-à-la-Baleine,-67.25,48.91
Cap-à-la-Branche,-70.43,47.38
Cap-à-l'Aigle,-70.1,47.66
Cap-à-l'Orignal,-68.8,48.35
Cap-au-Renard,-66.24,49.19
Cap-aux-Corbeaux,-70.46,47.43
Cap-aux-Oies,-70.24,47.49
Cap-aux-Os,-64.34,48.83
Cap-Bateau,-64.53,47.81
Cap-Bon-Ami,-64.22,48.81
Cap-Brûlé,-64.48,46.23
Cap-Chat-Est,-66.66,49.1
Cap-de-Cocagne,-64.55,46.35
Cap-de-Saint-Louis,-64.91,46.75
Cap-des-Caissie,-64.53,46.33
Cap-d'Espoir,-64.32,48.42
Cap-des-Rosiers,-64.21,48.86
Cap-des-Rosiers-Est,-64.21,48.84
Cape Auguet,-61.02,45.48
Cape Chin,-81.31,45.06
Cape Cove,-64.33,48.43
Cape Croker Hunting Ground 60B,-81.48,45.18
Cape Dauphin,-60.41,46.32
Cape Enrage,-64.78,45.62
Cape Forchu,-66.15,43.8
Cape Freels North,-53.5,49.26
Cape George Point,-61.9,45.86
Cape Jack,-61.56,45.68
Cape John,-63.09,45.79
Cape Mudge 10,-125.18,50.0
Cape Negro,-65.45,43.55
Cape North,-60.5,46.88
Cape Smokey,-60.39,46.6
Cape Spear,-63.81,46.08
Cape Spencer,-65.9,45.19
Cape St. Marys,-66.2,44.08
Cape Station,-64.6,45.8
Capelton,-71.9,45.31
Cap-Gaspé,-64.17,48.75
Capilano,-113.43,53.55
Capilano 5,-123.13,49.32
Capilano Highlands,-123.1,49.35
Capitol Hill,-114.1,51.06
Caplan-Ouest,-65.73,48.13
Caplin Cove,-53.35,48.02
Cap-Lumière,-64.7,46.65
Cappahayden,-52.94,46.86
Cap-Pelé,-64.26,46.21
Cap-Rouge,-71.35,46.75
Cap-Saint-Ignace-Station,-70.44,47.03
Cap-Saint-Jacques,-73.91,45.46
Cap-Santé,-71.78,46.66
Caps-de-Maria,-66.04,48.12
Cap-Seize,-66.39,49.01
Caps-Saint-Fidèle,-69.99,47.71
Capstan Island,-56.73,51.57
Capstick,-60.5,47.0
Capucins,-66.84,49.05
Caradoc,-81.52,42.91
Carbondale,-113.52,53.74
Carcajou,-117.04,57.76
Cardale,-100.32,50.23
Cardigan,-66.78,46.14
Cardinal Heights,-75.6,45.44
Cardross,-105.61,49.81
Cardwell,-80.09,43.97
Carey,-97.05,49.44
Cargill,-81.24,44.19
Cariboo,-122.88,49.25
Caribou,-62.69,45.73
Caribou Heights,-105.58,50.4
Caribou Island,-62.71,45.75
Caribou Marsh,-60.2,46.04
Caribou Marsh 29,-60.21,46.05
Caribou Mines,-62.94,45.05
Caribou River,-62.83,45.75
Carignan,-73.045,46.385
Carillon,-74.37,45.56
Carlea,-103.9,53.15
Carleton,-65.92,44.0
Carleton Corner,-65.28,44.83
Carleton Heights,-75.7,45.35
Carleton Square,-75.71,45.36
Carleton Square Industrial,-113.6,53.57
Carleton Village,-65.33,43.66
Carleton-Ouest,-66.17,48.11
Carley,-79.63,44.6
Carleys Corner,-75.8,44.86
Carlin,-74.52,45.74
Carling,-80.195,45.415
Carlingford,-67.75,46.74
Carlington,-75.73,45.37
Carlingwood,-75.76,45.37
Carlow,-67.51,46.51
Carlow/Mayo,-77.62,45.14
Carlowrie,-96.96,49.25
Carlsbad Springs,-75.45,45.36
Carlsruhe,-81.04,44.1
Carlton,-106.5,52.83
Carlton Park,-79.21,43.19
Carluke,-79.98,43.14
Carlyon,-79.49,44.72
Carm Creek 38,-129.78,54.61
Carmanah 6,-124.74,48.61
Carmel,-78.205,44.1
Carmichael,-108.64,50.04
Carmunnock,-81.13,43.6
Carnarvon,-78.69,45.05
Carnegie Beach,-78.86,44.19
Carol Richard Park,-81.01,46.62
Caroline Village,-76.25,44.89
Caron,-79.08,48.24
Caron Brook,-68.58,47.28
Carp Lake 3,-123.41,54.77
Carp South 7,-123.29,54.69
Carpenter,-66.06,45.67
Carpenter Mountain 15,-121.95,52.18
Carpin Beach,-84.45,46.5
Carr,-79.66,46.01
Carragana,-103.1,52.58
Carrick,-96.05,49.24
Carrier Lake 15,-123.88,54.52
Carroll,-100.03,49.6
Carroll Ridge,-67.46,45.85
Carrolls Corner,-63.38,45.01
Carrolls Cove,-55.7,52.16
Carrolls Crossing,-66.24,46.52
Carron Point,-65.6,47.64
Carrot River 29A,-102.87,53.49
Carrs,-119.46,50.11
Carrs Brook,-63.94,45.39
Carr's Landing,-80.76,43.66
Carruthers,-109.26,52.86
Carrville,-79.45,43.84
Carry The Kettle 76-18,-103.69,50.59
Carry The Kettle 76-19,-103.73,50.53
Carry The Kettle 76-20,-103.4,50.43
Carry The Kettle 76-21,-103.48,50.44
Carry The Kettle 76-22,-103.21,50.46
Carry The Kettle 76-23,-103.69,50.67
Carry The Kettle 76-24,-103.18,50.5
Carry The Kettle 76-25,-103.52,50.66
Carry The Kettle 76-35,-103.27,50.54
Carry The Kettle 76-36,-103.16,50.49
Carry The Kettle 76-37,-108.58,50.88
Carry The Kettle 76-38,-108.6,50.85
Carry The Kettle 76-40,-103.35,50.32
Carry The Kettle 76-41,-103.28,50.44
Carry The Kettle 76-42,-103.24,50.45
Carry The Kettle 76-43,-103.35,50.31
Carry The Kettle 76-48,-103.58,50.4
Carry The Kettle 76-59,-103.57,50.53
Carry The Kettle 76-67,-103.63,50.29
Carry The Kettle Nakoda 76-30,-103.09,50.48
Carry The Kettle Nakoda 76-45,-103.19,50.5
Carry The Kettle Nakoda 76-49,-103.17,50.5
Carry The Kettle Nakoda 76-5,-103.13,50.48
Carry The Kettle Nakoda 76-50,-103.16,50.5
Carry The Kettle Nakoda 76-53,-103.36,50.53
Carry The Kettle Nakoda 76-54,-103.32,50.31
Carry The Kettle Nakoda 76-55,-103.28,50.33
Carry The Kettle Nakoda 76-57,-103.5,50.44
Carry The Kettle Nakoda 76-58,-103.48,50.42
Carry The Kettle Nakoda 76-60,-103.69,50.56
Carry The Kettle Nakoda 76-63,-103.71,50.56
Carry The Kettle Nakoda 76-64,-103.59,50.54
Carry The Kettle Nakoda 76-9,-103.24,50.44
Carry The Kettle Nakoda First Nation 76-10,-103.27,50.44
Carry The Kettle Nakoda First Nation 76-11,-103.38,50.44
Carry The Kettle Nakoda First Nation 76-12,-103.22,50.45
Carry The Kettle Nakoda First Nation 76-13,-103.66,50.27
Carry The Kettle Nakoda First Nation 76-14,-103.16,50.5
Carry The Kettle Nakoda First Nation 76-15,-103.55,50.4
Carry The Kettle Nakoda First Nation 76-17,-103.68,50.6
Carry The Kettle Nakoda First Nation 76-29,-103.54,50.5
Carry The Kettle Nakoda First Nation 76-3,-103.38,50.45
Carry The Kettle Nakoda First Nation 76-31,-103.65,50.66
Carry The Kettle Nakoda First Nation 76-32,-103.69,50.67
Carry The Kettle Nakoda First Nation 76-33,-108.62,50.9
Carry The Kettle Nakoda First Nation 76-34,-103.62,50.45
Carry The Kettle Nakoda First Nation 76-4,-103.39,50.44
Carry The Kettle Nakoda First Nation 76-6,-103.18,50.46
Carry The Kettle Nakoda First Nation 76-7,-109.98,49.56
Carry The Kettle Nakoda First Nation 76-8,-103.31,50.31
Carry The Kettle Nakota First Nation 76-1,-103.27,50.32
Carry The Kettle Nakota First Nation 76-2,-103.23,50.33
Carrying Place,-77.58,44.04
Carson Grove,-75.62,45.43
Carsonby,-75.71,45.17
Carsoosat 17,-124.94,54.67
Carters Corners,-89.47,48.38
Carters Point,-66.17,45.38
Carterton,-83.95,46.19
Carthage,-80.85,43.66
Carthew Bay,-79.42,44.52
Carvel,-114.21,53.53
Carvell,-67.77,46.36
Casa Rio,-106.64,52.03
Cascade Heights,-123.01,49.25
Cascades,-75.87,45.58
Cascapédia–Saint-Jules,-65.91,48.25
Casdeded 8,-126.61,55.3
Case Settlement,-65.73,45.68
Casey,-79.56,47.62
Casey Corner,-64.54,45.02
Cashel,-79.32,43.91
Cashions Glen,-74.68,45.1
Cashtown Corners,-80.07,44.33
Casimiel Meadows 15A,-125.46,52.66
Casimir,-80.4,46.33
Casino,-117.66,49.05
Caslan,-112.51,54.63
Cass Bridge,-75.31,45.04
Cassburn,-74.7,45.58
Cassel,-80.76,43.28
Cassidy,-123.88,49.05
Cassilis,-65.76,46.94
Cassimayooks 5,-115.56,49.49
Cassin,-122.81,49.27
Castagnier,-77.82,48.73
Castaway,-65.72,46.29
Castile,-77.32,45.49
Castle Bay,-60.67,45.91
Castle Glen Estates,-80.32,44.46
Castle Green,-79.69,43.46
Castle Heights,-75.64,45.43
Castle Island,-114.34,53.7
Castle Rock,-122.48,52.53
Castlebar,-71.98,45.81
Castledale,-116.52,51.02
Castlederg,-79.76,43.91
Castleford,-76.58,45.52
Castlemore,-79.68,43.79
Castlereagh,-63.77,45.49
Castleridge,-113.95,51.1
Castleton,-77.93,44.09
Casummit Lake,-92.35,51.48
Caswell Hill,-106.67,52.14
Caswell's Beach,-79.75,44.74
Cat Lake 63C,-91.82,51.72
Catalone,-59.98,45.98
Catalone Gut,-59.95,46.01
Catamount,-64.98,46.16
Cataract,-80.02,43.82
Cataraqui,-76.54,44.25
Catchacoma,-78.33,44.74
Cathcart,-80.52,43.1
Cathedral Bluffs,-106.52,52.24
Caulfeild,-123.25,49.35
Cavalier,-108.55,53.08
Cavan,-78.46,44.2
Cavan-Monaghan,-78.46,44.21
Cavell,-108.58,52.26
Caverlys Landing,-77.45,45.07
Cavers,-87.69,48.9
Cawood,-76.19,45.82
Cayamant,-76.25,46.13
Caycuse,-124.36,48.88
Cayer,-99.13,51.3
Cayilth 5,-127.44,50.33
Cayoosh Creek 1,-121.93,50.66
Cayuse 6,-127.46,50.38
Cazaville,-74.37,45.08
Cecebe,-79.54,45.64
Cecil Lake,-120.58,56.3
Cedar Bay,-79.17,42.87
Cedar Beach,-79.67666667,44.08
Cedar Camp,-65.33,45.7
Cedar Creek,-77.76,44.1
Cedar Dale,-78.84,43.87
Cedar Glen,-78.63,44.49
Cedar Grove,-119.45,50.13
Cedar Harbour,-79.53,44.31
Cedar Heights,-84.31,46.54
Cedar Hill,-76.31,45.27
Cedar Lake,-66.1,44.02
Cedar Mills,-79.8,43.92
Cedar Mount,-79.55,44.39
Cedar Nook,-79.75,44.91
Cedar Point,-81.085,43.97
Cedar Shores,-78.91,44.13
Cedar Springs,-80.975,42.845
Cedar Springs Range,-82.02,42.26
Cedar Valley,-79.30333333,43.99666667
Cedar Villa Estates,-106.77,52.09
Cedar Village,-79.38,45.05
Cedarbrae,-114.13,50.96
Cedarbrook,-74.16,45.4
Cedardale,-123.13,49.33
Cedarhurst Beach,-79.17,44.4
Cedarhurst Park,-82.78,42.01
Cedarmont Beach,-79.4,44.54
Cedarside,-119.25,52.78
Cedarvale,-128.32,55.01
Cedarville,-80.22,44.01
Cedoux,-103.86,49.88
Celista,-119.35,50.95
Centennial,-97.15,49.9
Centennial Place,-64.81,46.08
Central,-79.87,43.26
Central Argyle,-65.84,43.76
Central Blissville,-66.57,45.63
Central Business District,-106.66,52.13
Central Cambridge,-66.02,45.74
Central Caribou,-62.72,45.71
Central Chebogue,-66.08,43.78
Central Clarence,-65.21,44.9
Central Elgin,-81.11,42.78
Central Frontenac,-76.83,44.71
Central Greenwich,-66.11,45.51
Central Grove,-66.26,44.34
Central Hainesville,-67.09,46.11
Central Huron,-81.52,43.67
Central Kings,-62.49,46.32
Central Kingsclear,-66.88,45.91
Central Manitoulin,-82.23,45.68
Central McDougall,-113.5,53.55
Central New Annan,-63.31,45.63
Central North River,-63.21,45.44
Central Norton,-65.8,45.56
Central Onslow,-63.32,45.37
Central Park,-75.73,45.36
Central Patricia,-90.16,51.48
Central Tower Hill,-67.21,45.31
Central Waterville,-67.29,46.07
Central West River,-62.84,45.57
Central Woods Harbour,-65.73,43.54
Centrale Adam-Cunningham,-71.17,48.65
Centrale aux Outardes-2,-68.39,49.14
Centrale aux Outardes-3,-68.72,49.55
Centrale aux Outardes-4,-68.9,49.7
Centrale Beaumont,-72.83,47.55
Centrale Bersimis-1,-69.55,49.29
Centrale Bersimis-2,-69.22,49.17
Centrale Bird-1,-71.71,46.74
Centrale Bird-2,-71.71,46.74
Centrale Brisay,-70.51,54.45
Centrale Daniel-Larocque,-75.49,46.55
Centrale d'Arthurville,-70.75,46.82
Centrale de Beauharnois,-73.91,45.31
Centrale de Bryson,-76.63,45.66
Centrale de Carillon,-74.38,45.56
Centrale de Chelsea,-75.77,45.52
Centrale de Chicoutimi,-71.07,48.42
Centrale de Chute-à-Caron,-71.25,48.45
Centrale de Donnacona,-71.74,46.67
Centrale de Grand-Mère,-72.67,46.61
Centrale de High Falls,-75.64,45.83
Centrale de la Chute-à-la-Savane,-71.83,48.75
Centrale de la Chute-aux-Galets,-71.2,48.65
Centrale de la Chute-Bell,-74.68,45.77
Centrale de la Chute-Burroughs,-72.01,45.15
Centrale de la Chute-des-Chats,-76.23,45.47
Centrale de la Chute-des-Passes,-71.16,49.84
Centrale de la Chute-du-Diable,-71.69,48.78
Centrale de la Chute-Garneau,-71.13,48.38
Centrale de la Chute-Hemmings,-72.45,45.86
Centrale de La Gabelle,-72.73,46.44
Centrale de la Hart-Jaune,-67.91,51.78
Centrale de la Mitis-1,-68.13,48.6
Centrale de la Mitis-2,-68.13,48.62
Centrale de la Paton,-71.89,45.4
Centrale de la Première-Chute,-79.45,47.6
Centrale de la Rivière-des-Prairies,-73.65,45.58
Centrale de la Sainte-Marguerite-3,-66.77,50.7
Centrale de la Toulnustouc,-68.15,49.97
Centrale de la Trenche,-72.88,47.75
Centrale de La Tuque,-72.79,47.44
Centrale de L'Anse-Saint-Jean,-70.28,48.2
Centrale de l'Eastmain-1,-76.05,52.18
Centrale de L'Isle-Maligne,-71.63,48.57
Centrale de Magpie,-64.45,50.32
Centrale de Masson,-75.42,45.56
Centrale de Paugan,-75.92,45.81
Centrale de Pont-Arnaud,-71.12,48.41
Centrale de Rapide-2,-78.57,47.93
Centrale de Rapide-7,-78.31,47.76
Centrale de Rapide-Blanc,-72.97,47.79
Centrale de Rawdon,-73.73,46.04
Centrale de Rivière-du-Loup,-69.53,47.83
Centrale de Saint-Alban,-72.07,46.71
Centrale de Sainte-Brigitte-des-Saults,-72.48,46.02
Centrale de Saint-Narcisse,-72.41,46.55
Centrale de Saint-Raphaël,-70.74,46.79
Centrale de Shawinigan-2,-72.76,46.53
Centrale de Shawinigan-3,-72.76,46.53
Centrale de Shipshaw,-71.21,48.44
Centrale de Tracy,-73.17,45.99
Centrale de Winneway,-78.55,47.57
Centrale des Abénaquis,-71.89,45.4
Centrale des Cascades-Savard,-68.12,51.3
Centrale des Cèdres,-74.02,45.31
Centrale des Chutes-de-la-Chaudière,-71.28,46.71
Centrale des Chutes-Ford,-71.94,46.83
Centrale des Rapides-des-Îles,-79.35,47.57
Centrale des Rapides-des-Quinze,-79.29,47.59
Centrale des Rapides-Farmer,-75.76,45.49
Centrale des Sept-Chutes,-70.81,47.12
Centrale du Corbeau,-75.94,46.31
Centrale du Lac-Robertson,-59.06,50.99
Centrale Dufferin,-75.41,45.58
Centrale Fraser,-69.53,47.83
Centrale Frontenac,-71.89,45.4
Centrale Jean-Lesage,-68.34,49.32
Centrale Jim-Gray,-71.21,48.69
Centrale La Grande-1,-78.57,53.73
Centrale La Grande-2-A,-77.54,53.77
Centrale La Grande-3,-75.99,53.72
Centrale La Grande-4,-73.46,53.88
Centrale Laforge-1,-72.61,54.17
Centrale Laforge-2,-71.27,54.59
Centrale Lebreux,-65.34,48.15
Centrale Manic-1,-68.32,49.19
Centrale Manic-5,-68.72,50.63
Centrale Manic-5-PA,-68.73,50.64
Centrale McCormick,-68.32,49.19
Centrale McDougall,-71.69,46.74
Centrale Murdock-Wilson,-71.23,48.46
Centrale Penman,-71.8,45.14
Centrale René-Lévesque,-68.59,49.74
Centrale Robert-Bourassa,-77.53,53.78
Centrale T.-D.-Bouchard,-72.95,45.62
Centrale Waltham,-76.92,45.91
Centre,-64.35,44.37
Centre Burlington,-64.1,45.06
Centre Dummer,-78.02,44.47
Centre East Pubnico,-65.76,43.62
Centre Glassville,-67.41,46.54
Centre Hastings,-77.45,44.42
Centre Inn,-80.19,43.63
Centre Lake Junction,-77.5,45.92
Centre Napan,-65.39,47.01
Centre Rawdon,-63.83,45.04
Centre Village,-64.28,46.04
Centre Wellington,-80.38,43.73
Centre-Acadie,-65.3,46.71
Centredale,-62.64,45.41
Centrefield,-75.03,45.52
Centrelea,-65.32,44.81
Centrepointe,-75.76,45.33
Centre-Saint-Simon,-64.84,47.73
Centreton,-66.08,45.43
Centretown,-75.69,45.41
Centreview,-77.74,45.36
Centre-ville,-75.69,45.41
Centurion,-79.31,45.4
Cessford,-111.55,51.0
Chaffeys Locks,-76.31,44.58
Chalifoux,-75.93,46.22
Challetkohum 5,-122.54,50.06
Challetkohum 9,-122.53,50.06
Chamberlain Settlement,-65.62,47.57
Chambers Corners,-79.37,42.94
Chambers Settlement,-65.3,45.67
Chambord-Jonction,-72.05,48.42
Chambres Corner,-65.8,45.89
Chamcook,-67.07,45.12
Chamcook Lake,-67.06,45.13
Champ de manoeuvre Albert Head Battery Point,-123.48,48.38
Champ de manoeuvre Banff,-115.53,51.21
Champ de manoeuvre Fanshawe Dam,-81.16,43.03
Champ de manoeuvre Geraldton,-86.95,49.75
Champ de manoeuvre Jarvis Lake,-117.81,53.45
Champ de manoeuvre Kakabeka Falls,-89.61,48.4
Champ de manoeuvre Korah,-84.38,46.55
Champ de manoeuvre Mary Hill,-123.54,48.34
Champ de manoeuvre Mill Hill,-65.3,45.76
Champ de manoeuvre Oshawa,-78.88,43.85
Champ de manoeuvre régional Wainwright,-110.88,52.74
Champ de manoeuvre Richmond,-75.74,45.19
Champ de manoeuvre Rocky Point,-123.56,48.32
Champ de manoeuvre Sudbury,-80.92,46.39
Champ de manoeuvre Suffield,-110.83,50.45
Champ de manoeuvre Sussex,-65.49,45.72
Champ de tir aérien Chezzetcook,-63.24,44.68
Champ de tir Alexandra Point,-63.05,46.19
Champ de tir Amherst,-64.17,45.82
Champ de tir Anse de Saanich,-123.49,48.63
Champ de tir Bedford,-63.66,44.74
Champ de tir Burdick,-105.38,50.4
Champ de tir Cedar Springs,-82.02,42.26
Champ de tir Connaught,-75.9,45.36
Champ de tir Debert,-63.47,45.44
Champ de tir Détroit de Haro,-123.35,48.56
Champ de tir et champ de manoeuvre Aldershot,-64.53,45.09
Champ de tir et champ de manoeuvre Barriefield,-76.46,44.24
Champ de tir et champ de manoeuvre Borden,-79.95,44.27
Champ de tir et champ de manoeuvre Gagetown,-66.31,45.63
Champ de tir et champ de manoeuvre Gloucester Junction,-65.65,47.55
Champ de tir et champ de manoeuvre Granville Ferry,-65.53,44.75
Champ de tir et champ de manoeuvre Ipperwash,-81.92,43.19
Champ de tir et champ de manoeuvre Meaford,-80.68,44.68
Champ de tir et champ de manoeuvre Mont Saint Bruno,-73.3,45.56
Champ de tir et champ de manoeuvre Niagara-on-the-Lake,-79.09,43.25
Champ de tir et champ de manoeuvre Petawawa,-77.44,45.93
Champ de tir et champ de manoeuvre Shilo,-99.47,49.73
Champ de tir et champ de manoeuvre Vernon,-119.28,50.23
Champ de tir Heals,-123.45,48.54
Champ de tir Île de Bentinck,-123.54,48.31
Champ de tir Lethbridge,-112.85,49.71
Champ de tir Moncton,-64.93,46.06
Champ de tir Mount McKay,-89.29,48.34
Champ de tir Nanaimo,-123.99,49.14
Champ de tir Nicolet,-72.68,46.19
Champ de tir Osborne Head,-63.42,44.61
Champ de tir Prince Albert,-105.76,53.23
Champ de tir Saint Charles,-97.33,49.91
Champ de tir Salmon Arm,-119.25,50.67
Champ de tir Sydney,-60.14,46.13
Champ de tir Winona,-79.61,43.21
Champcoeur,-77.63,48.67
Champdoré,-64.78,46.39
Champigny,-71.35,46.78
Champlain Park,-77.58,45.82
Champneuf,-77.5,48.58
Champney's,-53.28,48.39
Champney's West,-53.3,48.38
Chance Harbour,-66.35,45.12
Chancellor,-112.83,51.08
Chandler-Ouest,-64.71,48.34
Chandos Lake,-78.04,44.79
Change Islands,-54.4,49.66
Channel Island Sapotaweyak,-100.41,53.0
Channel Islands 33,-130.81,54.52
Channing,-101.83,54.75
Chanoodandidalch 14,-126.45,55.05
Chantelle,-73.89,46.11
Chantler,-79.32,43.0
Chantry,-76.1,44.67
Chaparral,-114.03,50.88
Chapel Grove,-66.08,45.38
Chapel Island 5,-60.76,45.69
Chapel Park 28,-125.74,54.22
Chapel's Corner,-72.8,45.14
Chapleau 61,-83.38,47.83
Chapleau 61A,-83.38,47.84
Chapleau 74,-83.38,47.82
Chapleau 74A,-83.38,47.8
Chapleau 75,-83.37,47.85
Chapleau Cree Fox Lake,-83.44,47.81
Chaplin Island Road,-65.68,47.06
Chapman,-77.3,44.43
Chapman Camp,-115.96,49.66
Chapman Corner,-64.56,46.21
Chapman Settlement,-63.93,45.94
Chapman's Bar 10,-121.42,49.72
Chapmans Corner,-64.08,46.13
Chapman's Landing,-79.53,46.1
Chapperon Creek 6,-120.05,50.2
Chapperon Lake 5,-120.06,50.21
Chapple,-93.99,48.74
Chaput Hughes,-80.06,48.14
Charella Garden,-122.76,53.88
Charette,-72.93,46.45
Charing Cross,-82.09,42.33
Charlemagne,-73.48,45.71
Charlemont,-82.28,42.64
Charles,-101.01,55.53
Charles Creek 2,-126.35,50.93
Charles Lake 225,-110.58,59.89
Charlesbourg,-71.26,46.85
Charleston,-67.64,46.37
Charlesville,-65.77,43.58
Charleswood,-97.28,49.85
Charleville,-75.61,44.75
Charley Boy's Meadow 3,-124.21,52.3
Charlos Cove,-61.33,45.24
Charlton and Dack,-79.95,47.79
Charnwood,-79.66,43.45
Charny,-71.26,46.71
Charteris,-76.43,45.68
Charters Settlement,-66.74,45.84
Chartersville,-64.73,46.08
Chartierville,-71.2,45.3
Chartrand Corner,-80.37,46.13
Chase Corners,-77.81,44.47
Chase River,-123.91,49.13
Chaswood,-63.21,45.04
Chataway Lake/Knife Lake,-94.28,54.53
Chatboro,-74.47,45.62
Chateau,-55.89,51.97
Château-Bigot,-71.26,46.89
Château-d'Eau,-71.36,46.86
Châteauguay-Centre,-73.75,45.35
Chater,-99.83,49.86
Chatfield,-97.57,50.78
Chatham Head,-65.54,46.99
Chatham Islands 4,-123.25,48.43
Chats Haven,-76.34,45.43
Chatscah 2,-127.08,52.89
Chatterton,-77.47,44.24
Chaumox 11,-121.48,49.93
Chawathil 4,-121.54,49.37
Chazel,-79.05,48.86
Cheadle,-113.54,51.01
Cheakamus,-123.15,49.83
Cheakamus 11,-123.18,49.8
Cheam 1,-121.76,49.2
Cheapside,-79.98,42.83
Chebogue Point,-66.11,43.76
Cheddar,-78.13,44.98
Chedoke Park,-79.91,43.24
Cheeseborough,-76.17,44.36
Cheesish 15,-126.46,49.67
Cheetsum's Farm 1,-121.31,50.68
Cheewat 4A,-124.81,48.66
Chehalis 5,-121.9,49.3
Chehalis 6,-121.88,49.28
Chekwelp 26,-123.49,49.41
Chekwelp 26A,-123.49,49.41
Chelan,-103.39,52.61
Chelsea,-64.74,44.37
Chelsea Green,-81.21,42.96
Cheltenham,-79.92,43.75
Chemainus 13,-123.78,49.0
Chemawawin 1,-100.38,53.31
Chemawawin 2,-99.79,53.1
Chemawawin 3,-99.72,52.95
Chemical Road,-64.67,45.78
Chemin-des-Pins,-75.87,45.57
Chemin-du-Lac,-69.54,47.74
Cheminis,-79.52,48.16
Chemin-Neuf,-70.6,46.43
Chenahkint 12,-126.97,49.87
Chenail-du-Moine,-72.98,46.07
Chenatha,-125.44,48.94
Chenaux,-76.71,45.57
Chénéville,-75.05,45.88
Cheney,-75.24,45.41
Chénier,-76.12,46.1
Chepi Lake,-92.43,54.63
Cherbourg,-66.99,48.9
Cherbourg-Centre,-67.06,48.91
Cherbourg-Ouest,-67.15,48.84
Cherry Brook,-63.47,44.7
Cherry Burton,-64.47,45.9
Cherry Creek,-122.7,49.995
Cherry Grove,-110.07,54.35
Cherry Heights,-79.74,43.21
Cherry Hill,-66.03,45.79
Cherry Lane Estates,-82.59,42.03
Cherry River,-72.16,45.31
Cherryfield,-64.8,46.13
Cherryfield Road,-64.8,44.66
Cherryvale,-65.48,46.05
Cherrywood,-79.14,43.85
Cherrywood Acres,-79.1,43.1
Chertsey,-73.91,46.16
Ches-la-kee 3,-126.98,50.56
Cheslatta 1,-125.7,54.0
Chester Basin,-64.3,44.56
Chester Grant,-64.32,44.61
Chester Islands,-64.24,44.52
Chesterfield,-80.66,43.29
Chestnut Hills,-79.52,43.65
Chetarpe 17,-126.0,49.24
Chéticamp,-61.01,46.62
Chéticamp Island,-61.03,46.62
Cheverie,-64.17,45.15
Chevery,-59.61,50.46
Chezacut,-124.03,52.4
Chezacut Cemetery 5,-124.04,52.34
Cheztainya Lake 11,-126.09,55.6
Chezzetcook Air Weapons Range,-63.24,44.68
Chiasson,-64.62,47.73
Chichester,-77.11,45.91
Chicken 224,-105.63,59.18
Chicken 225,-105.75,59.28
Chicken 226,-104.9,59.22
Chicot,-73.93,45.59
Chicoutimi-Centre,-71.06,48.42
Chicoutimi-Est,-71.02,48.42
Chicoutimi-Nord,-71.06,48.44
Chicoutimi-Ouest,-71.09,48.42
Chief Joseph Custer,-105.77,53.19
Chief Morris 13,-124.34,53.07
Chief Philip Morin 232,-105.73,53.19
Chief's Point 28,-81.28,44.68
Chig-in-kaht 8,-128.35,54.85
Chignecto,-64.21,45.73
Chikopi,-79.71,45.65
Chilanko Forks,-124.06,52.11
Chilco Lake 1,-124.11,51.41
Chilco Lake 1A,-124.1,51.41
Chilcotin Forest,-122.56,52.11
Chilcotin Training Area,-122.55,52.08
Child Lake 164A,-116.58,58.47
Childs Mines,-77.61,45.07
Chilhil 6,-121.8,50.63
Chimdimash 2,-128.35,54.66
Chimdimash 2A,-128.35,54.68
Chimney Creek 5,-122.27,52.06
Chimney Tickle,-55.69,52.16
Chimo Resort,-100.18,50.02
Chin,-112.44,49.76
Chinatown,-114.06,51.05
Chineside,-122.83,49.26
Chinook,-110.92,51.44
Chinook Park,-114.08,50.98
Chipewyan 201,-110.92,58.54
Chipewyan 201A,-110.6,58.64
Chipewyan 201B,-110.77,58.59
Chipewyan 201C,-110.91,58.42
Chipewyan 201D,-110.91,58.41
Chipewyan 201E,-110.97,58.39
Chipewyan 201F,-111.33,58.02
Chipewyan 201G,-111.39,57.9
Chipman Brook,-64.68,45.16
Chipmans Corner,-64.47,45.1
Chippawa,-79.04,43.05
Chippewa,-76.82,44.49
Chippewa Island,-80.04,45.08
Chippewa of the Thames,-81.47,42.81
Chippewas of Georgina Island First Nation,-79.28,44.38
Chippewas of Georgina Island First Nation 33A,-79.28,44.32
Chiselhurst,-81.43,43.43
Chiseuquis 9,-127.03,49.83
Chisholm,-114.16,54.9
Chiswick,-79.18,46.11
Chitek,-107.75,53.8
Chitek Lake 191,-107.75,53.71
Chockpish,-64.73,46.57
Chocolate Cove,-66.98,44.94
Choisy,-74.21,45.48
Chomedey,-73.75,45.53
Chopaka 7 & 8,-119.71,49.04
Chorney Beach,-103.55,51.8
Christian Island 30,-80.18,44.84
Christian Island 30A,-80.11,44.8
Christie Lake,-76.41,44.82
Christie Park,-114.17,51.03
Christie Ridge,-67.15,45.63
Christies Corner,-80.03,43.26
Christina,-81.48,42.86
Christmas Island,-60.74,45.97
Christopher,-66.8,47.93
Chuchakacook 4,-124.84,49.08
Chuchhriaschin 5,-121.33,50.46
Chuchhriaschin 5A,-121.34,50.44
Chuchummisapo 15,-124.61,48.87
Chuchuwayha 2,-120.1,49.37
Chuchuwayha 2C,-120.13,49.31
Chuckchuk 8,-123.3,49.97
Chukcheetso 7,-121.52,50.0
Chum Creek 2,-119.58,50.86
Chundoo Lh'tan La 45,-124.56,54.57
Church Hill,-65.11,45.74
Church Point,-66.11,44.33
Church Point Station,-66.08,44.3
Churchill 1,-98.48,58.71
Churchill Downs,-104.6,50.47
Churchill Lake 193A,-108.2,56.14
Churchill Park,-105.53,50.38
Churchland Road,-65.93,45.34
Churchover,-65.35,43.71
Churchview,-61.14,45.98
Churchville,-62.63,45.51
Chute-à-Blondeau,-74.47,45.58
Chute-aux-Galets,-71.19,48.65
Chute-des-Passes,-71.16,49.83
Chute-Panet,-71.86,46.86
Chute-Rouge,-76.04,46.58
Chute-Saint-Philippe,-75.23,46.65
Chutes-de-Sainte-Ursule,-73.09,46.31
Chute-Victoria,-75.27,46.64
Chuz Ghun 8,-124.38,54.64
Chuz Teeslee 41,-124.61,54.77
Cinnabar Valley,-123.91,49.1
Cinnamon Hills,-114.08,51.16
Ciquart,-68.3,47.5
Citadel,-114.18,51.15
Cité-de-la-Mode,-73.65,45.53
Cité-des-Jeunes,-74.02,45.39
Cité-du-Havre,-73.55,45.5
Citeyats 9,-129.5,53.24
City Centre,-97.16,49.88
City Park North,-106.65,52.14
City Park South,-106.65,52.13
City View,-75.74,45.35
Clachan,-81.8,42.58
Clairlea,-79.29,43.71
Clairvaux-de-Bagot,-72.85,45.72
Clairville,-65.1,46.38
Clam Bay,-62.92,44.73
Clam Harbour,-62.87,44.73
Clam Point,-65.57,43.49
Clanbrassil,-79.95,42.96
Clandeboye,-96.97,50.24
Clandonald,-110.71,53.57
Clanwilliam,-99.81,50.36
Claoose 4,-124.82,48.66
Clapham,-71.49,46.15
Clapperton,-66.01,48.15
Clappison's Corners,-79.91,43.31
Claraday,-78.31,44.28
Clardon Beach,-79.46,44.23
Clare,-80.63,43.99
Clarence,-65.24,44.89
Clarence East,-65.17,44.92
Clarence Ridge,-67.0,45.32
Clarence West,-65.28,44.86
Clarendon,-66.41,45.48
Clarendon Front,-76.56,45.54
Clarendon Station,-76.69,44.87
Clarenville South,-53.97,48.15
Clarina,-78.06,44.55
Clarkdon,-91.24,49.77
Clarke,-78.54,43.96
Clarke City,-66.63,50.19
Clarkes Hollow,-79.13,43.87
Clarks Church,-81.57,44.11
Clarks Corners,-66.13,45.94
Clark's Harbour,-65.62,43.44
Clarksburg,-80.46,44.54
Clarksdale,-79.81,43.35
Clarkson,-79.63,43.51
Clarksville,-63.83,45.1
Clarkville,-67.37,46.12
Classy Creek 8,-130.8,58.18
Clatse 5,-127.83,52.32
Clatux 9,-127.83,50.5
Claude,-79.9,43.79
Clavering,-81.13,44.68
Clavet,-106.37,51.99
Clay Bank,-76.41,45.38
Clay Valley,-76.44,45.42
Claybank,-105.23,50.04
Clayburn,-122.26,49.08
Clayhurst,-120.05,56.18
Clayoqua 6,-125.53,49.18
Clayton,-76.32,45.19
Clayton Park,-63.64,44.66
Clear Creek,-80.59,42.58
Clear Hills 152C,-118.79,56.53
Clear Lake,-79.135,45.25
Clearbrook,-122.33,49.05
Cleardale,-81.25,42.94
Clearland,-64.4,44.48
Clearview,-67.72,46.57
Clearview Estates,-79.99,43.22
Clearview Heights,-79.52,43.92
Clearville,-81.71,42.46
Clearwater 175,-111.02,56.65
Clearwater Bay,-94.8,49.71
Clearwater Beach,-79.91,44.85
Clearwater Lake,-100.97,53.97
Clearwater River,-109.465,56.525
Clearwater River Dene Band 221,-109.54,56.34
Clearwater River Dene Band 223,-108.71,56.05
Cleho 6,-125.24,48.92
Clemenceau,-102.52,52.66
Clément,-75.93,46.11
Clements Park,-64.94,44.96
Clementsport,-65.6,44.66
Clementsvale,-65.55,44.62
Clemville,-65.01,48.18
Cléricy,-78.86,48.36
Clerval,-79.43,48.75
Clesbaoneecheck 3,-122.94,53.96
Cleveland,-61.23,45.66
Cleveland Park,-123.1,49.36
Clienna 14,-127.99,50.54
Cliff Bungalow,-114.07,51.03
Cliffcrest,-79.22,43.72
Cliffside,-79.25,43.7
Clifton,-65.39,47.72
Clifton Royal,-66.0,45.44
Clifton-Partie-Est,-71.55,45.25
Cline River,-116.47,52.18
Clinton 1,-121.59,51.09
Cloan,-108.76,52.61
Clontarf,-77.13,45.41
Cloolthpich 12,-125.92,49.2
Cloridorme-Ouest,-64.85,49.18
Clotalairquot 4,-126.63,55.35
Cloud Bay,-89.42,48.13
Cloudslee,-83.7,46.32
Clouston,-105.85,53.1
Cloutier,-79.15,48.0
Clova,-75.36,48.1
Clover Bar,-113.35,53.56
Clover Hill,-65.58,45.57
Clover Valley,-81.59,44.01
Cloverdale,-113.47,53.53
Cloverleaf,-96.56,49.98
Cloverville,-62.01,45.68
Clowel 13,-129.81,53.44
Cluchuta Lake 10A,-125.07,52.98
Cluchuta Lake 10B,-125.07,52.98
Cludolicum 9,-122.03,51.86
Cludolicum 9A,-122.01,51.86
Cluny,-112.86,50.84
Clustalach 5,-124.25,53.93
Clute,-81.07,49.18
Clyde Forks,-76.67,45.13
Clydesdale,-62.05,45.64
Clydesville,-76.39,45.03
Coach Hill,-114.16,51.05
Coachman's Cove,-56.12,50.06
Coal Branch,-65.14,46.35
Coal Brook,-58.99,47.93
Coal Creek,-65.88,46.09
Coalburn,-62.59,45.56
Coalfields,-102.73,49.1
Coalmont,-120.7,49.51
Coalpit Bay,-78.98,46.77
Coates Mills,-64.87,46.37
Coaticook-Nord,-71.8,45.14
Coatsworth,-82.35,42.16
Coburg,-64.11,46.02
Coburn,-67.05,45.67
Cocagne Cove,-64.55,46.33
Cocagne-Nord,-64.66,46.33
Cocagne-Sud,-64.62,46.32
Cochenour,-93.8,51.07
Cockburn Island,-83.37,45.92
Cockmi 3,-127.68,51.5
Coddles Harbour,-61.54,45.16
Codes Corner,-76.42,44.29
Codiac Heights,-64.85,46.06
Codrington,-77.8,44.16
Codys,-65.82,45.87
Coffee Cove,-55.95,49.58
Coffin Island 3,-126.5,50.57
Coffinscroft,-65.55,43.54
Coglistiko River 29,-123.84,52.98
Cogmagun,-64.05,45.09
Cognashene,-79.92,44.92
Cohoe Point 20,-132.97,54.23
Coin-chez-Leblanc,-77.17,45.87
Coin-de-la-Petite-Mine,-71.85,45.83
Coin-Douglass,-73.44,45.19
Coin-du-Banc,-64.29,48.55
Coin-du-Quatre,-78.98,48.63
Coin-Lavigne,-73.89,46.38
Coin-Rond,-73.21,45.63
Coins Gratton,-74.92,45.61
Coin-Saint-Philippe,-71.78,45.94
Colbeck,-80.36,43.99
Colby Village,-63.48,44.66
Cold Brook,-58.53,48.6
Cold Lake 149,-110.28,54.28
Cold Lake 149A,-110.15,54.45
Cold Lake 149B,-110.25,54.51
Cold Lake 149c,-110.03,54.72
Cold Springs,-78.2,44.06
Coldbrook,-64.58,45.06
Coldsprings,-78.3,44.28
Coldwater 1,-120.83,50.03
Coldwell,-86.52,48.76
Cole Bay 3,-123.45,48.61
Cole Harbour,-62.375,44.965
Cole Harbour 30,-63.48,44.65
Cole Lake,-76.67,44.58
Colebrook,-76.77,44.38
Colebrooke Settlement,-66.72,47.93
Colebrooke West,-67.77,47.03
Colemans,-79.12,43.23
Coleman's Shore,-76.16,45.05
Colesdale Park,-105.15,50.95
Colfax,-103.98,49.95
Colgan,-79.84,44.02
Colgate,-103.89,49.39
Colindale,-61.49,46.06
Colinville,-82.34,42.86
College Bridge,-64.54,45.97
College Grant,-62.57,45.53
College Heights,-113.73,52.48
College Lake,-62.8,45.23
College Park,-106.59,52.12
College Park East,-106.57,52.11
Collette-Village,-64.72,46.5
Colliers,-53.24,47.45
Collin Lake 223,-110.17,59.58
Collina,-65.67,45.77
Collingwood Corner,-63.93,45.6
Collingwood Lakeshore Estates,-105.21,51.08
Collins,-89.44,50.29
Collins Cove,-55.17,47.03
Collins Inlet,-81.19,46.0
Collison Heights,-78.31,44.27
Colombière,-77.57,48.09
Colombourg,-79.14,48.74
Colombourg-Station,-79.13,48.77
Colonie-Cinq,-78.87,48.38
Colonie-de-Sainte-Julienne,-64.61,48.9
Colonie-Fournière,-78.15,48.08
Colpitts Settlement,-64.97,45.98
Colpoy's Bay,-81.12,44.78
Colpton,-64.84,44.45
Colquhoun,-75.13,45.01
Colquitz,-123.41,48.48
Columbia Gardens,-117.58,49.06
Columbia Lake 3,-115.91,50.41
Columbus,-78.91,43.98
Colwell,-79.78,44.34
Colwood,-123.49,48.42
Comeau,-98.97,51.02
Comeau Point,-64.15,46.16
Comeau Ridge,-67.69,47.14
Comeaus Hill,-66.01,43.69
Comeauville,-66.12,44.28
Comestock Corners,-72.13,45.04
Comet,-82.98,42.01
Comfort Bight,-55.77,53.15
Comfort Cove-Newstead,-54.87,49.35
Comins Mills,-71.5,45.01
Commanda,-79.6,45.95
Commodore Heights,-122.13,52.16
Commodore Park,-63.53,44.68
Communauté Atikamekw de Manawan,-74.38,47.21
Community Beach,-79.73,43.23
Como,-74.1,45.44
Comox 1,-124.95,49.67
Compeer,-110.01,51.85
Compton Island 6,-126.68,50.59
Conception Harbour,-53.22,47.43
Concession,-66.07,44.28
Concession-de-Baker-Brook,-68.55,47.34
Concession-des-Bouchard,-68.69,47.26
Concession-des-Jaunes,-68.8,47.23
Concession-des-Lang,-68.63,47.28
Concession-des-Ouellette,-68.59,47.32
Concession-des-Viel,-68.75,47.25
Concord,-62.79,45.45
Concord Point,-79.21,44.53
Condor,-114.55,52.32
Confederation Heights,-75.68,45.37
Confederation Park,-106.73,52.14
Coningsby,-80.12,43.74
Coniston,-80.84,46.49
Conmee,-89.66,48.48
Connaught,-112.365,50.53
Connaught Heights,-122.95,49.2
Connaught Hill,-81.2,48.47
Connaught Range,-75.9,45.36
Connaught Shore,-78.37,44.44
Conne River,-55.75,47.86
Connell,-67.61,46.4
Connellys,-77.82,44.35
Connor,-79.92,43.98
Connors,-68.82,47.21
Conns Mills,-63.7,45.76
Conover,-80.21,44.19
Conquerall Bank,-64.46,44.36
Conquerall Mills,-64.52,44.3
Conrod Settlement,-63.24,44.76
Conroy,-81.04,43.29
Constance,-105.81,49.2
Constance Lake (Achikamii/Achikamaw),-84.13,49.8
Constance Lake 92,-84.12,49.81
Constant Creek,-77.01,45.41
Convent Glen,-75.53,45.46
Convoy Place,-63.61,44.66
Conway,-65.77,44.6
Cooke's Shore,-76.21,45.04
Cooking Lake,-113.12,53.41
Cooks Brook,-64.69,46.13
Cooks Cove,-61.48,45.36
Cooks Mills,-79.315,44.695
Cookshire-Eaton,-71.63,45.41
Cooksville,-79.61,43.58
Cookville,-64.33,46.04
Coombe,-122.91,49.32
Coombes Road,-67.76,47.19
Coombs,-124.41,49.3
Cooper,-77.47,44.64
Coopers Falls,-79.23,44.78
Coopte 9,-126.59,49.69
Cootes Paradise,-79.94,43.26
Cootes Pond,-53.52,46.95
Copeland Park,-75.74,45.36
Copenhagen,-80.98,42.67
Copetown,-80.05,43.24
Copp,-77.45,45.46
Coppell,-83.82,49.53
Copper Cliff,-81.06,46.47
Copper Johnny Meadow 8,-121.74,51.37
Copper Lake,-61.98,45.4
Copperhead,-80.13,45.15
Coppin's Corners,-79.14,44.04
Coquitlam 1,-122.8,49.23
Coquitlam 2,-122.79,49.24
Coral,-81.67,50.21
Coral Springs,-113.93,51.1
Corbeil,-79.29,46.26
Corberrie,-65.92,44.23
Corbett,-81.69,43.24
Corbetton,-80.32,44.13
Corbin,-55.24,46.96
Corbyville,-77.38,44.21
Cordova,-99.71,50.13
Cordova Bay,-123.36,48.51
Cordova Mines,-77.78,44.54
Corinne,-104.61,50.05
Corinth,-80.83,42.82
Cork,-66.92,45.71
Corkery,-76.1,45.28
Corkscrew Creek 10,-124.22,53.87
Corkscrew Creek 9,-124.19,53.87
Corktown,-79.86,43.24
Corkums Island,-64.32,44.34
Cormac,-77.29,45.46
Cormier Cove,-64.56,45.95
Cormier-Village,-64.35,46.17
Cormierville,-64.62,46.4
Cornell,-80.62,42.9
Cornfield,-52.89,47.04
Cornhill,-65.34,45.91
Cornhill East,-65.3,45.91
Cornwall Centre,-74.8,45.04
Cornwall Island,-74.68,45.01
Cornwall Lake 224,-110.59,59.6
Cornwallis Park,-65.63,44.65
Cornwallis Square,-64.66,45.07
Coronation Gardens,-79.0,43.95
Coronation Park,-82.37,42.96
Coronet Additional Industrial,-113.45,53.5
Coronet Industrial,-113.47,53.49
Corriveau,-71.02,46.12
Corsons,-78.89,44.62
Corte-Real,-64.59,48.9
Cortes Bay,-124.93,50.06
Corwhin,-80.1,43.5
Corwin Crescent,-79.1,43.08
Coryatsaqua (Moricetown) 2,-127.33,55.03
Cosine,-109.93,52.13
Cosman Settlement,-65.45,45.9
Cossetteville,-72.53,46.68
Costigan,-67.75,46.9
Cosy Cove,-77.28,44.49
Cote 64,-101.91,51.63
Coteau Beach,-106.82,51.16
Coteau Road,-64.55,47.83
Coteau-du-Lac,-74.18,45.3
Coteau-Landing,-74.21,45.25
Coteau-Mauvais-Riz,-70.43,47.02
Coteau-Station,-74.23,45.28
Côte-d'en-Bas,-73.31,45.8
Côte-de-Sable,-75.67,45.42
Côte-des-Neiges–Notre-Dame-de-Grâce,-73.62,45.49
Côte-des-Perron,-73.72,45.64
Côte-d'Or,-64.62,46.35
Côte-du-Lac,-71.2,46.93
Côte-Nord-du-Golfe-du-Saint-Laurent,-59.6,50.46
Côte-Sainte-Anne,-64.72,46.57
Côte-Saint-Luc,-73.66,45.46
Côte-Saint-Pierre,-75.06,45.82
Cotnam Island,-77.03,45.79
Cotswold,-80.79,43.86
Cottage Cove,-65.17,44.99
Cottesloe,-78.08,44.4
Cottlesville,-54.86,49.5
Cottonwoods,-99.7,49.84
Couchiching 16A,-93.42,48.68
Coude-de-la-Rivière-Moisie,-66.06,50.26
Coughlan,-65.76,46.76
Coughlin,-88.38,48.88
Coulson,-79.61,44.57
Coulson's Hill,-79.57,44.16
Coulter,-100.98,49.09
Country Harbour Lake,-61.91,45.3
Country Harbour Mines,-61.82,45.25
Country Hills,-114.09,51.06
Country Hills Village,-114.06,51.15
Country Place,-75.7,45.32
County of Brant,-80.28,43.13
Courcelles,-70.98,45.86
Courcellette,-70.05,47.71
Courtice,-78.77,43.91
Courtland,-80.63,42.84
Courtland Park,-75.71,45.37
Courville,-71.16,46.88
Cous 3,-124.83,49.18
Coutnac Beach,-79.91,44.82
Couttsville,-79.69,47.66
Couturier,-69.21,47.68
Couturval,-67.5,48.46
Cove Beach,-78.64,44.33
Cove Cliff,-122.95,49.31
Covedell,-65.01,47.31
Coventry,-79.73,43.9
Coventry Hills,-114.03,51.17
Coventry Place,-104.64,50.46
Coverdale,-64.89,46.04
Covey Hill,-73.75,45.01
Coveys Island,-64.36,44.24
Cow Bay,-63.42,44.62
Cowan's Bay,-78.54,44.33
Cowans Creek,-64.91,47.65
Cowessess 73,-102.67,50.58
Cowessess 73A,-102.5,50.61
Cowichan 1,-123.66,48.76
Cowichan 9,-123.65,48.75
Cowichan Lake,-124.07,48.82
Cowichan Station,-123.66,48.73
Cowie Hill,-63.62,44.63
Cowper Lake 194A,-110.46,55.91
Cox Point,-65.96,46.02
Coxheath,-60.24,46.1
Coxvale,-76.87,44.87
Coyle,-120.88,50.15
Coytown,-66.2,45.83
CPR,-105.55,50.4
Crab River (Crab Harbour) 18,-128.76,53.56
Cracknell,-101.24,50.86
Crafts Cove,-66.0,45.73
Craig Henry,-75.76,45.33
Craig Shore,-76.16,45.04
Craigellachie,-118.71,50.96
Craighurst,-79.72,44.52
Craigleith,-80.32,44.52
Craigmawr Beach,-79.47,44.23
Craigmont,-77.63,45.29
Craigmore,-61.47,45.76
Craigmyle,-112.24,51.66
Craigsholme,-80.27,43.78
Craigville,-65.53,46.96
Cramahe,-77.87,44.08
Crampton,-80.94,42.94
Cranberry,-124.53,49.88
Cranberry Junction,-128.6,55.56
Crandall,-100.78,50.15
Crandall Road,-61.34,45.63
Crane River 51,-99.23,51.49
Crane Valley,-105.52,49.75
Cranston,-79.92,42.99
Crathie,-81.63,43.02
Crawford,-80.93,44.26
Crawford Plains,-113.4,53.43
Crawford's Grove,-78.33,44.27
Crean Hill,-81.35,46.42
Creditville,-80.61,43.15
Cree,-84.7,49.21
Cree Lake 192G,-107.06,57.38
Creek Bank,-80.53,43.7
Creek Road,-65.38,45.93
Creighton Heights,-78.14,44.01
Creighton Valley,-118.78,50.21
Creignish Rear,-61.41,45.71
Crescent,-122.85,49.05
Crescent Bay,-117.15,49.61
Crescent Beach,-121.265,49.33
Crescent Harbour,-79.53,44.37
Crescent Heights,-114.05,51.05
Crescent Park,-78.96,42.89
Crescent Town,-79.29,43.69
Crescent Valley,-117.55,49.45
Crescent View,-105.5,50.4
Cresswell,-78.97,44.28
Cressy,-76.87,44.09
Cresthill,-75.86,46.31
Creston 1,-116.53,49.05
Crestview,-75.73,45.34
Crestwood,-112.105,51.775
Crestwynd,-105.68,50.1
Crewe,-81.64,43.9
Crewsons Corners,-80.08,43.63
Crichton Park,-63.56,44.68
Crieff,-80.15,43.42
Crinan,-81.66,42.65
Crique-Clair,-72.84,47.27
Crique-La Corne,-77.96,48.25
Crocker Hill,-67.25,45.19
Crockets Corner,-65.34,45.78
Croft,-61.83,45.49
Crofton,-123.65,48.86
Cromar,-82.26,42.78
Cromarty,-81.35,43.42
Crombie Settlement,-67.49,46.94
Cromdale,-113.46,53.56
Cromer,-101.23,49.73
Crooked Bay,-79.76,44.92
Crooked Creek,-117.88,55.17
Crooked Lake,-64.54,44.9
Crooked River,-103.73,52.85
Crooks,-89.52,48.07
Crookston,-77.44,44.43
Crosby,-76.25,44.65
Cross Creek,-66.71,46.3
Cross Lake 19,-97.83,54.61
Cross Lake 19A,-97.76,54.64
Cross Lake 19B,-97.75,54.57
Cross Lake 19C,-97.77,54.59
Cross Lake 19D,-97.94,54.61
Cross Lake 19E,-97.75,54.62
Cross Lake 19x01,-95.97,55.09
Cross Lake 19x02,-96.07,55.08
Cross Lake 19x03,-96.2,55.22
Cross Lake 19x05,-97.4,54.99
Cross Lake 19x06,-97.01,55.07
Cross Point Station,-66.69,48.03
Cross Roads,-65.58,47.01
Cross Roads Ohio,-62.05,45.48
Crossburn,-64.81,44.74
Crosshill,-80.74,43.53
Crossland,-79.91,44.53
Crossley Hunter,-81.03,42.85
Croton,-82.04,42.61
Crouses Settlement,-64.4,44.34
Crousetown,-64.48,44.26
Crow Harbour,-66.62,45.09
Crow Head,-54.79,49.67
Crowe Bridge,-77.75,44.38
Crowes Landing,-78.06,44.56
Crowes Mills,-63.36,45.4
Crowland,-79.25,42.98
Crown Hill,-79.64,44.43
Croydon,-76.97,44.42
Crozier,-93.53,48.61
Cruickshank,-81.04,44.59
Crumlin,-81.14,43.01
Crutwell,-106.06,53.21
Cryderman Subdivision,-80.74,46.67
Crystal,-75.9,44.79
Crystal Bay,-75.84,45.35
Crystal Bay-Sunset,-108.86,53.55
Crystal Falls,-79.88,46.45
Crystal Lake,-102.42,51.85
Crystal Rock,-75.49,44.79
Crystal Springs,-114.03,52.97
Cudsaskwa Beach,-105.62,52.65
Cullen,-102.95,49.36
Cullens Brook,-65.44,48.04
Culligan,-65.92,47.91
Cullite 3,-124.69,48.59
Culloden,-65.83,44.65
Culls Harbour,-53.94,48.67
Culross,-97.91,49.71
Cultus,-80.61,42.63
Cumberland 100A,-104.84,53.04
Cumberland 20,-102.24,53.93
Cumberland Mills,-70.62,46.19
Cummings Cove,-66.99,44.94
Cumnock,-80.45,43.75
Cumshewas 7,-131.69,53.04
Cundles,-79.7,44.4
Cunningham's Corners,-78.69,44.33
Curran,-74.99,45.49
Currie,-67.58,46.76
Currie Heights,-105.55,50.38
Currie Road,-67.58,46.87
Currieburg,-66.81,46.3
Curries,-80.71,43.06
Curry Hill,-74.39,45.2
Currys Corner,-64.13,44.97
Curryville,-64.63,45.83
Curtis Park,-65.44,47.01
Curve Lake 35A,-78.4,44.47
Curve Lake First Nation 35,-78.36,44.48
Curventon,-65.82,47.05
Curzon Village,-57.92,49.51
Cushendall,-76.38,44.32
Cushing,-74.46,45.59
Cuslett,-54.15,46.96
Cutbank,-106.85,51.3
Cynthia,-115.42,53.28
Cypress Park,-123.23,49.34
Cyr Junction,-67.89,47.12
Cyrville,-75.63,45.42
Daaquam,-70.06,46.58
Daaquam-Nord,-70.08,46.61
Dablon,-72.16,48.31
Dacotah,-97.63,49.87
Dacre,-76.96,45.37
Dafoe,-104.52,51.75
Dagger Woods,-61.84,45.59
Dahinda,-105.05,49.73
D'Aiguillon,-64.31,48.82
Dain City,-79.24,42.94
Dakiulis 7,-126.56,50.73
Dakota Plains,-98.52,49.81
Dakota Plains 6A,-98.51,49.81
Dakota Tipi,-98.35,49.94
Dakota Tipi 1,-98.34,49.94
Dale,-78.29,43.98
Dalem Lake,-60.41,46.25
D'Alembert,-79.01,48.36
Dalemead,-113.63,50.87
Dalesville,-74.39,45.7
Dalhousie Junction,-66.5,48.04
Dalhousie Lake,-76.6,44.95
Dalhousie Mills,-74.47,45.31
Dalibaire-Ouest,-66.88,48.93
Dalkeith,-74.57,45.44
Dalk-ka-gila-quoeux 2,-128.66,54.58
Dallas,-120.16,50.66
Dalroy,-113.66,51.12
Dalrymple,-79.1,44.64
Dalston,-79.68,44.48
Dalton,-84.03,48.15
Dalton Mills,-84.07,48.12
Dalvay,-63.06,46.41
Daly Grove,-113.39,53.44
Damascus,-65.8,45.46
Dame-Neuve,-74.35,45.63
Dana,-105.7,52.3
Danbury,-102.25,52.04
Danby,-72.41,45.67
Dancaster Courts,-79.98,43.21
Dance,-93.67,48.76
Dand,-100.5,49.34
Dane,-80.03,48.07
Danesville,-64.62,44.18
Danford Lake,-76.15,45.92
Daniel's Harbour,-57.58,50.23
Daniel's Point,-53.37,46.75
Daningay 12,-132.57,54.08
Danvers,-65.89,44.37
Dapp,-113.91,54.34
Darby,-72.64,45.41
D'Arcy,-122.48,50.55
Darfield,-120.18,51.3
Darling Road,-79.69,42.96
Darlingford,-98.37,49.2
Darlings Beach,-107.92,49.97
Darlings Lake,-66.13,43.95
Darlingside,-75.97,44.36
Darlington,-66.38,48.05
Darmody,-106.28,50.71
Darrell,-82.18,42.47
Dartford,-77.93,44.22
Dartmoor,-122.82,49.24
Darwell,-114.59,53.67
Dashken 22,-130.16,54.15
Dashwood,-124.51,49.36
Dauphin Beach,-99.84,51.14
Dauphin River,-98.06,51.95
Dauphin River 48A,-98.05,51.95
Dauversière,-65.86,47.76
Davidson Corner,-75.67,45.5
Davidson Hill,-72.37,45.58
Davidson Lake,-67.13,45.94
Davidsons Beach,-76.54,44.36
Davie Lake 28,-122.71,54.53
Davies Industrial East,-113.42,53.5
Davies Industrial West,-113.45,53.49
Davin,-104.1,50.38
Davis,-105.65,53.11
Davis Bay,-123.73,49.43
Davis Lock,-76.28,44.56
Davis Mill,-67.87,47.185
Davis Mills,-77.2,45.75
Davisville,-79.38,43.7
Dawn Mills,-82.12,42.58
Dawn Valley,-82.22,42.65
Dawn-Euphemia,-82.06,42.7
Dawson Bay,-100.97,52.97
Dawson Settlement,-64.75,45.94
Dawsonville,-66.89,47.93
Day Hill,-67.14,45.97
Day Mills,-83.35,46.29
Day Star 87,-104.26,51.53
Day's Beach,-108.34,53.05
Dayspring,-64.47,44.37
Dayton,-66.1,43.87
Daytonia Beach,-78.73,44.48
Daytown,-76.1,44.63
De Beaujeu,-74.33,45.32
De Forceville,-64.35,48.52
De Grasse,-66.21,50.21
De Grassi Point,-79.52,44.25
De Lesseps,-74.56,46.12
De Quen-Nord,-72.12,48.33
De Saint-Just,-70.0,47.45
De Winton,-114.01,50.82
Deacon,-77.37,45.6
Deacons Corner,-96.93,49.82
Dead Creek,-67.51,45.87
Dead Islands,-55.83,52.79
Dead Point 5,-126.59,50.59
Deadmans Cove,-56.78,51.25
Deadmans Harbour,-66.76,45.05
Dean,-62.88,45.19
Dean Lake,-83.15,46.21
Deanlea Beach,-79.99,44.61
Deans Corner,-64.33,44.39
Dearlock,-94.09,48.84
Dease Lake 9,-130.02,58.47
Dease River 1,-129.28,59.28
Dease River 2 (Dease),-129.17,59.42
Dease River 2 (Liard),-129.12,59.65
Dease River 3 (Dease),-129.23,59.6
Dease River 3 (Liard),-129.03,59.31
Dease River 4,-129.16,59.67
Deauville,-72.03,45.34
DeBaies Cove,-62.81,44.75
Debert Lake,-63.46,45.59
Debert Range,-63.47,45.44
DeCew Falls,-79.26,43.1
Decewsville,-79.91,42.93
Decker,-100.78,50.27
Deckers Hill,-79.08,43.86
Dedagaus 8,-127.51,51.11
Dee Bank,-79.52,45.17
Deemerton,-81.07,44.04
Deena 3,-132.12,53.14
Deep Bay,-124.71,49.46
Deep Cove,-123.205,49.005
Deep Creek,-119.21,50.61
Deep Creek 2,-122.08,52.26
Deep Creek 5,-123.13,53.29
Deep Valley 5,-124.93,50.37
Deepdale,-61.28,46.21
Deer Bay,-78.27,44.54
Deer Harbour,-53.56,48.13
Deer Ridge,-113.83,52.28
Deer Run,-114.0,50.91
Deer Valley,-104.88,50.58
Deerbrook,-82.62,42.29
Deerfield,-65.99,43.95
Deerhorn,-98.04,50.77
Deerhurst,-79.58,44.18
Deerville,-67.66,46.29
Defence Island 28,-123.27,49.57
Defoy,-72.13,46.14
Dejong,-81.76,43.0
Del Ray,-79.48,43.7
Delaps Cove,-65.63,44.76
Delaware West,-81.43,42.9
Delbrook,-123.08,49.35
Déléage,-75.91,46.38
Deleau,-100.57,49.58
Delhaven,-64.37,45.2
Delisle's Corners,-83.01,42.18
Delkatla,-132.13,54.01
Delmer,-80.79,42.87
Delnite,-81.29,48.43
Delrex,-79.91,43.64
Delson,-73.55,45.36
Delta Beach,-98.32,50.18
Delton,-113.46,53.56
Del-Val,-66.74,49.08
Delwood,-113.43,53.6
Demaine,-107.25,50.88
Demers,-77.06,45.84
Demers-Centre,-77.06,45.86
Demoiselle Creek,-64.65,45.85
Dempseys Corner,-64.84,45.05
Denfield,-81.43,43.12
Denholm,-75.75,45.81
Denison Mills,-72.1,45.74
Denmark,-63.15,45.7
Dennis,-66.0,46.89
Dennis Hill,-59.17,47.6
Dentville,-123.15,49.71
Denver,-62.1,45.33
Departure Bay,-123.96,49.2
Departure Lake,-81.79,49.28
Depot Harbour,-80.09,45.31
Dépôt-des-Loutres,-72.17,49.5
Derby,-65.65,46.88
Derby Junction,-65.59,46.95
Dereham Centre,-80.81,42.92
Dermid,-93.73,48.67
Deroche,-122.06,49.18
Derry West,-79.7,43.64
Derrynane,-80.58,43.94
Derryville,-79.08,44.32
Des Ormeaux,-72.51,46.33
Des Rivières,-73.05,45.15
Désaulniers,-80.1,46.55
Desboro,-80.98,44.39
Deschambault-Grondines,-71.93,46.65
Deschambault-Station,-71.94,46.66
Descharme Lake,-109.21,57.1
Deschênes,-75.8,45.38
D'Escousse,-60.96,45.58
Desert Lake,-76.59,44.51
Desherbiers,-65.22,46.64
Desjardins,-71.18,46.8
Desjardins Road,-67.68,47.0
Desjardinsville,-77.12,45.84
Desmaraisville,-76.18,49.5
Desmond,-76.84,44.39
Despinassy,-77.44,48.76
Després-Village,-64.65,46.4
Destor,-78.95,48.45
Detlor,-77.73,45.03
Deuxième-Sault,-68.23,47.45
Deux-Montagnes,-73.88,45.53
Devault,-72.91,46.29
Développement-Blais,-71.78,45.44
Développement-de-Sainte-Clotilde,-72.23,45.94
Développement-la-Terre,-71.82,45.8
Développement-Malaga,-72.26,45.25
Développement-Nadeau,-71.8,45.31
Développement-Quatre-Saisons,-72.27,45.25
Développement-Webster,-72.26,45.26
Devereaux,-65.73,47.82
Devil's Gate 220,-111.21,58.8
Devine,-122.48,50.51
Devine Corner,-65.54,45.54
Devizes,-81.22,43.16
Devon 30,-66.6,46.0
Dewar Lake,-109.63,51.63
Dewars,-76.47,45.47
Dewdney,-122.2,49.16
DeWitts Corners,-76.36,44.84
Dewittville,-74.09,45.11
DeWolfe,-67.28,45.33
Dexter,-81.12,42.67
Diamond,-62.97,45.63
Diamond City,-112.83,49.79
Diamond Cove,-114.02,50.94
Dickie Mountain,-65.73,45.63
Dickson,-114.3,52.05
Dickson Hill,-79.27,43.94
Dieppe Place,-104.67,50.45
Digby Corner,-67.76,46.38
Digdeguash,-66.96,45.18
Diligent River,-64.45,45.41
Dillabough,-102.76,52.55
Dil-ma-sow 5,-128.98,52.72
Dingwall,-60.46,46.89
Dinorwic,-92.49,49.69
Dipper Harbour East,-66.42,45.1
Dipper Harbour West,-66.42,45.09
Dipper Rapids 192C,-107.38,55.91
Dirleton,-76.14,45.49
Discovery Island 3,-123.24,48.42
Discovery Ridge,-114.19,51.03
Disley,-105.04,50.64
District of West Kelowna,-119.62,49.83
Ditton,-71.25,45.41
Divide,-67.34,46.54
Dixie,-79.36,43.72
Dixon,-74.97,45.08
Dixons Corners,-75.35,44.92
Dlah Koh 31,-125.1,55.03
Doak Settlement,-66.62,45.9
Dobbinton,-81.13,44.39
Dobie,-79.82,48.13
Dobsons Corner,-65.21,46.03
Doctors Brook,-62.12,45.77
Doctors Cove,-65.63,43.51
Dodge Cove,-130.38,54.28
Doe Lake,-79.42,45.55
Dog Creek 1,-122.2,51.58
Dog Creek 2,-122.08,51.6
Dog Creek 3,-122.06,51.61
Dog Creek 4,-122.3,51.6
Dog Creek 46,-98.56,50.91
Dog Head 218,-111.18,58.71
Dogs Nest,-80.16,42.8
Dogwood,-57.83,48.95
Doheny,-72.59,47.07
Doig River,-120.49,56.57
Doig River 206,-120.5,56.56
Dokie Siding,-121.73,55.65
Dokis,-80.03,46.13
Dokis 9,-80.04,46.06
Dolbeau,-72.23,48.88
Dollard,-108.58,49.61
Dollard-Des Ormeaux,-73.81,45.48
Dollarton,-122.95,49.31
Dolphin Beach,-124.15,49.3
Dolphin Island 1,-130.43,53.78
Domain,-97.32,49.61
Domaine-à-Martin,-74.34,45.44
Domaine-Bastien,-74.28,45.95
Domaine-Beauchesne,-73.27,46.48
Domaine-Beaumont,-74.1,45.51
Domaine-Belle-Rivière,-74.48,46.14
Domaine-Boisvert,-71.63,45.82
Domaine-Brunet,-74.33,45.45
Domaine-Cloutier,-74.06,45.75
Domaine-Condor,-71.86,45.76
Domaine-de-la-Châtelaine,-74.32,45.93
Domaine-de-la-Halte,-71.79,45.93
Domaine-de-la-Petite-Coulée,-72.23,45.95
Domaine-des-Lacs-Boisés,-74.32,46.0
Domaine-des-Pins,-71.36,45.95
Domaine-des-Pyramides,-74.41,46.14
Domaine-des-Rêves,-73.93,45.96
Domaine-des-Sapins,-71.84,45.79
Domaine-des-Sept-Chutes,-71.65,45.83
Domaine-des-Sources,-74.09,45.75
Domaine-du-Lac-des-Cyprès,-72.19,45.94
Domaine-Entrelacs,-74.0,46.1
Domaine-Filion,-74.19,45.9
Domaine-Fortier,-74.12,45.77
Domaine-Francoeur,-72.25,45.8
Domaine-Frontiersman,-74.41,49.85
Domaine-Grenon,-74.21,45.77
Domaine-Guaybois,-72.24,45.81
Domaine-Guindon,-74.3,46.07
Domaine-Lavertu,-73.89,45.91
Domaine-Lemieux,-72.1,45.86
Domaine-Lemire,-72.36,45.88
Domaine-Malard,-71.55,46.2
Domaine-Mont-Blanc,-74.43,45.94
Domaine-Parent,-73.17,45.855
Domaine-Pharand,-74.18,45.3
Domaine-Roger,-74.48,46.13
Dome,-81.24,48.46
Dome Creek,-121.03,53.75
Dominion,-60.01,46.21
Dominion Heights,-104.56,50.43
Dominion Industrial,-113.55,53.57
