Municipality,Latitude,Longitude
?ejere K'elni Kue 196I,59.52,-111.47
105 Mile Post 2,50.73,-121.31
10th Line Shore,45.09,-76.15
12 Wing Shearwater,44.63,-63.51
12e Escadre Shearwater,44.63,-63.51
141 Mile House,52,-121.85
150 Mile House,52.11,-121.85
17 Wing Winnipeg,49.88,-97.23
17e Escadre Winnipeg,49.88,-97.23
4 1/2 Mile 2,49.6,-121.41
93 Mile,51.56,-121.33
A Kwis Ki Mahka,56.34,-94.71
Aass 3,49.61,-126.82
Abana,48.95,-79.33
Abbeydale,51.05,-114.93
Abbott's Corner,45.03,-72.79
Abbottsfield,53.56,-113.38
Abee,54.23,-113.02
Abénakis,46.58,-70.82
Aberarder,43.05,-82.09
Aberfeldy,42.75,-81.93
Abingdon,43.08,-79.68
Abitibi,49.02,-80.88
Abitibi 70,48.63,-79.97
Abitibi Canyon,49.87,-81.57
Abrams River,43.82,-65.94
Abrams Village,46.45,-64.08
Abuntlet Lake 4,52.57,-125.4
Acaciaville,44.58,-65.76
Acadia,50.96,-114.05
Achill,44.01,-79.91
Actons Corners,44.98,-75.71
Adams Gulch,47.83,-67.04
Adamsdale,46.48,-80.9
Adamsville,46.39,-65.18
Adamsville,44.85,-81.16
Adamsville,45.27,-72.78
Adanac,46.195,-80.205
Adanac,52.45,-109.05
Addington Forks,45.56,-62.08
Addington Highlands,44.93,-77.31
Addison,44.66,-75.88
Adelaide,43,-81.71
Adelaide Metcalfe,42.94,-81.71
Adelaide Park,52.09,-106.64
Adeytown,48.07,-53.93
Adjala-Tosorontio,44.13,-79.93
Admaston,45.47,-76.81
Admaston/Bromley,45.52,-76.89
Admiral Rock,45.17,-63.4
Admiral's Cove,47.09,-52.9
Adolphustown,44.06,-77
Adstock,46.05,-71.08
Advance,45.86,-82.42
Aetna,49.13,-113.24
Afton,45.6,-61.71
Afton,46.17,-63.2
Agassiz,49.23,-121.76
Agats Meadow 8,52.28,-124.16
Agawa Bay,47.34,-84.62
Agency 1,48.62,-93.36
Agency 30,49.36,-94.61
Agerton,43.55,-79.8
Aghaming,51.18,-96.28
Agincourt,43.79,-79.28
Agincourt North,43.8,-79.26
Aglakumna 4A,50.55,-126.65
Aglakumna-la 2,50.57,-126.51
Aguanish,50.21,-62.08
Agwedin 3,55.38,-127.68
Ahahswinis 1,49.26,-124.82
Ahaminaquus 12,49.68,-126.11
Ahmacinnit 3,50.01,-127.39
Ahmic Harbour,45.66,-79.77
Ahmic Lake,45.62,-79.68
Ahmitsa 5,48.96,-125.05
Ahnuhati 6,50.89,-125.64
Ahous 16,49.16,-126.02
Ahpokum 9,50.24,-124.58
Ahpukto 3,49.81,-126.94
Ahta 3,50.87,-126.16
Ahtahkakoop 104,53.38,-106.9
Ahuk 1,48.7,-124.88
Ahuntsic-Cartierville,45.55,-73.66
Ah-we-cha-ol-to 16,50.53,-127.97
Aikwucks 15,49.76,-123.16
Aillik,55.21,-59.2
Ain 6,53.73,-132.42
Ainslie Glen,46.02,-61.13
Ainsworth Hot Springs,49.73,-116.91
Air Ronge,55.08,-105.34
Airlie,44.26,-80
Airy,45.49,-78.25
Aitchelitch 9,49.14,-121.99
Ak:tiis,50.01,-127.39
Akinsdale,53.62,-113.59
Akwesasne 59,45.04,-74.56
Akwesasne Reserve 15,45.01,-74.56
Alalco 8,51.05,-126.52
Alastair 80,54.13,-129.17
Alastair 81,54.1,-129.17
Alastair 82,54.06,-129.19
Alba,45.93,-61
Albany,44.77,-65.05
Albany Cross,44.72,-65.02
Albany New,44.45,-65.08
Alberni,49.25,-124.8
Alberni 2,49.21,-124.81
Albert,44.31,-77.13
Albert,52.11,-106.64
Albert Bridge,46.01,-60.05
Albert Flat 5,49.51,-121.41
Albert Head,48.39,-123.5
Albert Head Battery Point Training Area,48.38,-123.48
Albert Mines,45.87,-64.66
Albert Mines,45.32,-71.91
Albert Park,50.4,-104.63
Albert Park South,50.4,-104.63
Alberta Avenue,53.56,-113.48
Alberta Park Industrial,53.56,-113.59
Albion,49.18,-122.55
Albion,43.9,-79.84
Albion Falls,43.19,-79.81
Albro Lake,44.68,-63.58
Albuna,42.13,-82.63
Albury,44.07,-77.52
Alcida,47.77,-65.82
Alcomdale,53.89,-113.83
Alcove,45.68,-75.93
Alder,44.18,-79.38
Alder Creek 70,54.23,-129.42
Alder River,45.48,-61.71
Alderburn,49.11,-55.25
Alderdale,46.1,-79.26
Alderney Point,45.49,-60.95
Aldershot,43.3,-79.84
Aldershot Range and Training Area,45.09,-64.53
Alderslea,44.32,-79.53
Aldersville,44.81,-64.5
Aldersyde,50.67,-113.87
Alderville,44.18,-78.06
Alderville First Nation,44.17,-78.08
Alderwood,47.51,-64.99
Alderwood,43.6,-79.53
Aldred's Beach,44.16,-78.86
Alert Bay 1,50.59,-126.92
Alert Bay 1A,50.59,-126.94
Alexander 134,53.81,-113.96
Alexander 134a,54.28,-116.45
Alexander 134b,54.34,-114.81
Alexandra,46.19,-63.03
Alexandra Point Range,46.19,-63.05
Alexandria 1,52.56,-122.47
Alexandria 10,52.66,-122.6
Alexandria 11,52.63,-122.6
Alexandria 12,52.51,-122.32
Alexandria 1A,52.56,-122.45
Alexandria 3,52.58,-122.5
Alexandria 3A,52.56,-122.5
Alexandrina,46.31,-64.78
Alexis 133,53.73,-114.48
Alexis 9,49.21,-119.91
Alexis Cardinal River 234,52.85,-116.97
Alexis Creek 12,52.24,-124.23
Alexis Creek 13,52.2,-124.28
Alexis Creek 14,52.2,-124.31
Alexis Creek 15,52.18,-124.32
Alexis Creek 16,52.17,-124.31
Alexis Creek 17,52.2,-124.36
Alexis Creek 18,52.2,-124.35
Alexis Creek 20,52.32,-124.24
Alexis Creek 21,52.31,-124.26
Alexis Creek 22,52.32,-124.32
Alexis Creek 23,52.3,-124.34
Alexis Creek 24,52.3,-124.36
Alexis Creek 25,52.29,-124.4
Alexis Creek 26,52.3,-124.43
Alexis Creek 27,52.32,-124.41
Alexis Creek 28,52.35,-124.37
Alexis Creek 29,52.37,-124.4
Alexis Creek 30,52.38,-124.41
Alexis Creek 31,52.42,-124.4
Alexis Creek 32,52.44,-124.43
Alexis Creek 33,52.45,-124.46
Alexis Creek 34,52.48,-124.28
Alexis Creek 35,52.43,-124.23
Alexis Creek 6,52.34,-124.09
Alexis Elk River 233,52.92,-116.54
Alexis Thomas 1A,53.74,-125.24
Alexis Whitecourt 232,54.22,-115.81
Aleza Lake,54.11,-122.03
Alfred and Plantagenet,45.58,-74.91
Algoma Mills,46.18,-82.81
Algonquin,44.7,-75.66
Algonquin Highlands,45.39,-78.68
Algonquin Park,45.55,-78.59
Algrove,52.48,-103.88
Alhambra,52.34,-114.67
Alice,45.75,-77.29
Alice Beach,50.92,-105.16
Alixton 5,51.8,-122.13
Alkali Lake 1,51.78,-122.22
Alkali Lake 4A,51.82,-122.11
Alkhili 2,59.61,-133.67
Allains Creek,44.73,-65.52
Allainville,47.3,-65.25
Allan Mills,44.4,-77.72
Allan Park,44.16,-80.93
Allanburg,43.07,-79.2
Allandale,45.9,-67.29
Allans Corners,45.67,-77.09
Allan's Corners,45.16,-73.92
Allan's Island,46.85,-55.8
Allanwater Bridge,50.23,-90.16
Allard,48.16,-66.38
Allardville East,47.5,-65.38
Allen Hill,45.4,-64.71
Allen Rapids,55.03,-93.87
Allendale,53.5,-113.5
Allendale,43.75,-65.09
Allen's Mill,46.9,-71.96
Allensville,45.26,-79.3
Allenville,45.37,-64.7
Allenwood,44.57,-79.95
Allenwood Beach,44.57,-79.99
Alleyn-et-Cawood,45.91,-76.16
Allison,46.06,-64.91
Allison Bay 219,58.77,-111.03
Allisonville,44.02,-77.36
Alloa,43.7,-79.85
Allsaw,44.98,-78.61
Almira,43.93,-79.33
Almond Gardens,49.01,-118.5
Alnwick/Haldimand,44.11,-78.05
Alphonse Tommy 7,55.31,-126.63
Alpine Meadows,50.15,-122.96
Alpine Village,43.995,-79.475
Alport,45.02,-79.35
Alsace,46.03,-79.54
Alsfeldt,44.01,-80.94
Alsops Beach,44.44,-79.15
Alstonvale,45.47,-74.18
Alta Vista,45.38,-75.65
Alta Vista,50.8,-104.96
Altadore,51.01,-114.1
Altamont,49.33,-123.2
Altamont,49.39,-98.49
Altbergthal,49.09,-97.6
Althorpe,44.75,-76.47
Alticane,52.9,-107.48
Alton,45.18,-63.3
Alton,43.85,-80.06
Alvanley,44.53,-81.11
Alvena,52.51,-106.01
Amazon,51.55,-105.45
Amber River 211,58.89,-118.94
Amberley,44.04,-81.71
Ambleside,49.31,-123.15
Ambleside,44.01,-81.19
Amery,56.56,-94.06
Amesdale,50.01,-92.93
Amethyst Harbour,48.54,-88.87
Amherst Cove,48.57,-53.2
Amherst Head,45.88,-63.99
Amherst Point,45.78,-64.27
Amherst Pointe,42.05,-83.11
Amherst Range,45.82,-64.17
Amherst Shore,45.96,-63.89
Amherstview,44.22,-76.64
Amigari Downs,42.92,-78.94
Amigo Beach,44.68,-79.39
Amik Wachink Sakahikan,54.25,-94.96
Amiraults Hill,43.81,-65.97
Amisk Lake 184,54.58,-102.41
Amiskosakahikan 210,54.44,-102.14
Ammon,46.16,-64.84
Amostown,46.53,-66.2
Amsterdam,51.74,-102.45
Amulet,48.29,-79.02
Amulet,49.61,-104.75
Amulree,43.42,-80.83
Amyot,48.48,-84.95
Anagance,45.86,-65.25
Anagance Ridge,45.88,-65.31
Anahim 10,52.26,-122.93
Anahim 11,52.29,-122.93
Anahim 12,52.3,-122.97
Anahim 13,52.26,-122.99
Anahim 14,52.28,-123
Anahim 15,52.29,-123.02
Anahim 16,52.33,-123.08
Anahim 17,52.36,-123.06
Anahim 18,52.43,-123.2
Anahim 3,52.18,-123.07
Anahim 4,52.2,-123.07
Anahim 5,52.2,-123.01
Anahim 6,52.21,-123
Anahim 7,52.18,-122.96
Anahim 8,52.21,-122.95
Anahim 9,52.22,-122.94
Anahim's Flat 1,52.03,-123.16
Anahim's Meadow 2,52.11,-123.23
Anahim's Meadow 2A,52.1,-123.21
Anaqtl'a,48.8,-125.11
Ancaster,43.2,-80.01
Ancaster Heights,43.23,-79.96
Anchor Point,51.23,-56.78
Ancona Point,44.5,-78.61
Andak 9,55.44,-127.6
Anderson,54.38,-96.65
Anderson,43.755,-79.08
Anderson Lake,46.23,-81.73
Anderson Lake 5,50.54,-122.51
Anderson Mountain,45.62,-62.56
Anderson Settlement,46.11,-64.24
Andersonville,45.42,-67.25
Andimaul 1,55.1,-127.93
Andrew Bay,54.44,-94.63
Andrewsville,44.95,-75.82
Andy Cahoose Meadow 16,52.88,-125.73
Anerley,51.36,-107.31
Aneroid,49.71,-107.3
Anfield,46.92,-67.51
Angers,45.52,-75.49
Angevine Lake,45.73,-63.55
Anglia,51.56,-108.16
Anjou,45.6,-73.55
Anlaw 4,55.29,-127.67
Anmore,49.31,-122.85
Ann Island 7,51.27,-127.81
Annable Settlement,45.1,-75.35
Annan,44.61,-80.85
Annandale-Little Pond-Howe Bay,46.28,-62.41
Annapolis Valley First Nation,45.06,-64.65
Annidale,45.79,-65.78
Anniedale,49.16,-122.71
Annis,50.79,-119.08
Anoma Lea,44.63,-75.92
Ansnorveldt,44.08,-79.54
Anson,44.29,-77.59
Ansonia,46.31,-83.6
Ansonville,48.75,-80.68
Anthony,48.53,-80.59
Anthonys Cove,45.22,-66
Antigonish Harbour,45.71,-61.9
Antigonish Landing,45.63,-61.96
Antko 21,50.08,-120.76
Antrim,44.96,-63.35
Antrim,45.36,-76.22
Apex Mountain,49.39,-119.91
Appelo,47.19,-81.4
Apple River,45.46,-64.78
Appleby,43.37,-79.77
Appledale,49.65,-117.53
Appledore,42.52,-82.14
Applegrove,45.08,-72.18
Appleton,48.98,-54.85
Appleton,45.18,-76.12
Applewood Acres,44.485,-77.615
Applewood Heights,43.6,-79.59
Applewood Hills,43.61,-79.6
Applewood Park,51.04,-113.92
Apsagayu 1A,50.73,-126.48
Apto,44.5,-79.8
Aquadeo,53.13,-108.42
Aquaforte,47,-52.95
Arbakka,49.05,-96.47
Arbeatha Park,45.31,-75.82
Arbeau Settlement,46.64,-65.85
Arbor Vitae,48.89,-94.29
Arbour Lake,51.13,-114.2
Arbuthnot,49.81,-106.9
Arbutus Ridge,49.25,-123.16
Arcadia,43.82,-66.06
Ar-ce-wy-ee 4,50.54,-127
Archer,44.98,-75.1
Archibald Settlement,47.87,-66.06
Arctic Lake 10,54.43,-121.7
Ardath,51.61,-107.23
Ardbeg,45.64,-80.08
Ardendale,44.72,-76.94
Ardenode,51.14,-113.42
Ardness,45.69,-62.23
Ardoch,44.93,-76.9
Ardoise,44.95,-63.93
Ardrossan,53.55,-113.14
Ardtrea,44.68,-79.4
Arelee,52.25,-107.5
Argentia Beach,53.05,-114.01
Argosy,46.98,-67.7
Argyle,50.18,-97.45
Argyle,46.51,-67.34
Argyle,44.585,-63.89
Argyle,44.45,-79.01
Argyle Head,43.82,-65.85
Argyle Park,50.49,-104.62
Argyle Sound,43.69,-65.81
Argyll,53.5,-113.45
Arisaig,45.76,-62.16
Ariss,43.57,-80.36
Arkell,43.53,-80.16
Arklan,45.08,-76.34
Arkwright,44.45,-81.21
Arlington,45.19,-64.42
Arlington Beach,51.24,-105.23
Arlington East,44.93,-65.21
Arlington West,44.91,-65.27
Arlington Woods,45.32,-75.78
Armadale,43.83,-79.25
Armagh Station,46.72,-70.58
Armbro Heights,43.67,-79.74
Armdale,44.63,-63.62
Armena,53.12,-112.94
Armit,52.83,-101.78
Armitage,44.03,-79.47
Armley,53.11,-104.03
Armond,46.41,-67.38
Armour,45.62,-79.34
Armour Heights,43.74,-79.43
Armow,44.19,-81.51
Armstrong Brook,47.91,-65.96
Armstrong Industrial,53.56,-113.61
Armstrong Lake,44.77,-64.73
Armstrong Mills,43.62,-80.26
Armstrongs Corners,44.93,-76.3
Arnaud,49.25,-97.1
Arner,42.03,-82.82
Arnes,50.8,-96.99
Arnheim Place,50.43,-104.58
Arnold,49,-122.15
Arnott,44.43,-80.85
Arnstein,45.92,-79.93
Arntfield,48.19,-79.25
Aroland,50.23,-86.96
Aroland 83,50.21,-86.96
Arpin,48.92,-80.72
Arran,51.88,-101.71
Arran-Elderslie,44.39,-81.2
Arranvale,44.45,-81.14
Arras,55.75,-120.53
Arrow Creek,49.13,-116.45
Arrow River,50.14,-100.89
Arrowview Heights,49.23,-124.76
Arseneault,47.41,-61.77
Arthabaska,46.04,-71.92
Arthurville,46.82,-70.75
Artland,52.7,-109.88
Arundel,45.96,-74.61
Arva,43.05,-81.29
Arvida,48.42,-71.18
Asahal Lake 2,52.14,-122.01
Ascot,45.37,-71.9
Ascot Corner,45.45,-71.76
Ash,43.43,-79.81
Ashburn,44,-78.99
Ashburnham,44.3,-78.3
Ashby,46.13,-60.16
Ashby Mill,44.46,-77.82
Ashcroft 4,50.72,-121.31
Ashdad,45.35,-76.75
Ashdale,45.52,-62.04
Ashdale,45.3,-75.7
Ashfield,45.91,-61.16
Ashfield-Colborne-Wawanosh,43.88,-81.59
Ashgrove,43.6,-79.89
Ashland,46.31,-67.46
Ashmore,44.46,-65.97
Ashnola 10,49.21,-120
Ashton,45.15,-76.03
Ashton Creek,50.55,-119.01
Ashton Station,45.17,-76.05
Ashville,51.17,-100.29
Ashworth,45.34,-79.4
Asimakaniseekan Askiy 102A,52.12,-106.58
Asimakaniseekan Askiy 102B,52.12,-106.7
Askilton,45.69,-61.3
Aspdin,45.29,-79.37
Aspen Gardens,53.47,-113.54
Aspen Park,50.63,-97.02
Asphodel-Norwood,44.35,-78.01
Aspotogan,44.52,-64.05
Aspy Bay,46.92,-60.48
Assabaska,48.98,-94.43
Asselstine,44.24,-76.73
Assiginack,45.7,-81.88
Assineau River 150F,55.38,-115.18
Assiniboia East,50.43,-104.57
Assiniboine 76,50.34,-103.53
Astle,46.41,-66.47
Aston Station,46.18,-72.27
Aston-Jonction,46.16,-72.23
Atchelitz,49.11,-122.01
Atha Road,43.94,-79.17
Athalmer,50.51,-116.01
Athapap,54.57,-101.68
Athelstan,45.03,-74.17
Atherley,44.6,-79.36
Atherton,42.82,-80.44
Athlone,53.58,-113.54
Athlone,44.03,-79.88
Athol,45.67,-64.21
Athol,44.62,-76.055
Athol Road,45.63,-64.1
Atihkosanik Cree Nation,55.3,-95.75
Atikameg,55.91,-115.65
Atkinson,45.63,-63.72
Atkinson,44.38,-76.27
Atlanta,45.15,-64.49
Atlantic,43.58,-65.33
Atlin-Teslin Indian Cemetery 4,59.55,-133.69
Atluck,50.2,-126.98
Atmore,54.81,-112.54
Attawapiskat 91,53.58,-84.31
Attawapiskat 91A,52.92,-82.42
Attercliffe,42.99,-79.58
Attercliffe Station,42.96,-79.59
Atwater,50.77,-102.22
Atwoods Brook,43.5,-65.65
Aubert-Gallion,46.12,-70.7
Aubigny,49.45,-97.24
Aubrey,45.14,-73.79
Auburn,45.01,-64.87
Auburn Mills,44.31,-78.3
Auburndale,44.4,-64.59
Auburnville,47,-65.12
Auclair,47.73,-68.65
Auden,50.22,-87.89
Audet,45.65,-70.73
Audley,43.9,-79.01
Augier Lake 22,54.44,-125.61
Augsburg,45.52,-77.18
Augusta,44.75,-75.6
Aulac,45.87,-64.28
Aulds Cove,45.64,-61.43
Aumond,46.46,-75.9
Aupe 6,50.33,-125.07
Aupe 6A,50.33,-125.06
Austin Heights,49.25,-122.86
Austin's Flat 3,49.77,-121.44
Auteuil,45.63,-73.76
Authier,48.73,-78.85
Authier-Nord,48.83,-78.86
Avalon,52.09,-106.65
Avening,44.31,-80.07
Avery Island 92,54.21,-130.75
Avery Point,44.67,-79.11
Avon,46.06,-66.04
Avon,42.9,-80.93
Avonbank,43.32,-81.12
Avondale,46.31,-67.64
Avondale,47.39,-53.22
Avondale,45.325,-63.205
Avonhurst,50.63,-104.13
Avonry,42.75,-82.35
Avonton,43.35,-81.08
Axe Lake,45.39,-79.53
Aylechootlook 5,49.12,-122.1
Aylesbury,50.93,-105.69
Aylesford East,45.02,-64.81
Aylesford Lake,44.96,-64.67
Aylesford Mountain,45.06,-64.85
Aylesworth,44.28,-76.54
Aylsworth,48.54,-93.8
Aylwin,45.98,-76.02
Aylwin Station,45.97,-76.05
Aywawwis 15,49.39,-121.41
Azilda,46.55,-81.11
Azu Ski Village,55.38,-122.63
Babine 16,55.32,-126.64
Babine 17,55.02,-127.33
Babine 18,55.03,-127.38
Babine 25,54.81,-126.14
Babine 26,54.95,-126.12
Babine 6,55.32,-126.61
Babine Lake 20,55.06,-126.46
Babine Lake 21B,54.49,-125.64
Babine River 21,55.41,-126.68
Babine River 21A,55.41,-126.67
Baby Point,43.65,-79.49
Babys Point,42.64,-82.5
Baccaro,43.47,-65.47
Back Bay,45.05,-66.86
Back Centre,44.36,-64.35
Back Clarendon,45.43,-66.56
Back Cove,49.84,-56.56
Back Harbour,49.65,-54.78
Back Lots,47.04,-65.5
Bacon Cove,47.48,-53.17
Bacon Ridge,51,-99
Bacon's Bay,45.18,-72.02
Baddeck Bay,46.12,-60.71
Baddow,44.61,-78.75
Baden,52.78,-101.21
Badenoch,43.47,-80.08
Badger's Corners,45.39,-80.02
Badjeros,44.25,-80.28
Baezaeko River 25,52.98,-123.8
Baezaeko River 26,52.98,-123.81
Baezaeko River 27,52.98,-123.81
Bagdad,45.92,-65.86
Bagnall,42.34,-82.36
Bagot,49.96,-98.63
Bagotville,48.34,-70.89
Baie du Doré,44.33,-81.55
Baie Verte Road,45.98,-64.15
Baie-Carrière,47.84,-78.01
Baie-de-l'Ours,45.87,-75.12
Baie-des-Bacon,48.52,-69.27
Baie-des-Brises,45.19,-74.16
Baie-des-Capucins,49.04,-66.85
Baie-des-Cèdres,47.3,-79.45
Baie-des-Ha! Ha!,50.92,-58.97
Baie-de-Shawinigan,46.53,-72.76
Baie-des-Homards,49.83,-67.11
Baie-des-Rochers,47.95,-69.85
Baie-Dorval,46.98,-79.23
Baie-D'Urfé,45.41,-73.91
Baie-du-Tonnerre,44.8,-80.07
Baie-Jolie,46.28,-72.63
Baie-Laperrière,47.29,-79.44
Baie-Laval,48.77,-69.05
Baie-Noire,45.6,-75.19
Baie-Rouge,50.82,-58.95
Baie-Sainte-Anne,47.05,-64.95
Baie-Sainte-Catherine,48.1,-69.73
Baie-Saint-Ludger,49.09,-68.32
Baie-Trinité-Est,49.42,-67.28
Baie-Trinité-Ouest,49.42,-67.3
Baildon,50.26,-105.46
Bailey Corners,46.61,-80.81
Baileys Brook,45.66,-62.27
Bailieboro,44.13,-78.35
Baillie,45.38,-67.26
Baine Harbour,47.36,-54.89
Bains Corner,45.33,-65.64
Bainsville,45.18,-74.41
Baird,48.42,-89.42
Bairdsville,46.63,-67.71
Baker-Brook,47.3,-68.51
Bakers Brook,49.65,-57.95
Bakers Settlement,44.39,-64.67
Bala Park,45.01,-79.58
Balaclava,45.035,-78.855
Bald Rock,44.46,-63.58
Balderson,44.95,-76.32
Baldonnel,56.2,-120.68
Baldoon,42.49,-82.34
Baldwin,45.29,-80.545
Baldwin Mills,45.03,-71.9
Baldwins Bridge,45,-75.41
Baldwinton,52.78,-109.26
Baldy Hughes,53.61,-122.93
Balfour Beach,44.26,-79.49
Balfron,45.67,-63.23
Baljennie,52.55,-107.9
Balla Philip,46.48,-64.91
Ballantrae,44.03,-79.29
Ballantynes Cove,45.85,-61.92
Ballinafad,43.69,-80.01
Balls Creek,46.14,-60.31
Ballycanoe,44.53,-75.9
Ballycroy,43.97,-79.87
Ballydown Beach,44.24,-79.53
Ballyduff,44.13,-78.65
Ballyhack,47.43,-53.19
Ballymote,43.06,-81.23
Balm Beach,44.69,-80
Balmertown,51.05,-93.74
Balmoral Beach,49.66,-124.9
Balmoral Mills,45.64,-63.19
Balmy Beach,44.61,-80.94
Balone Beach,52.66,-105.6
Balsam,43.98,-79.06
Balsam Creek,46.41,-79.2
Balsam Grove,44.24,-76.53
Balsam Harbour,50.48,-96.57
Balsam Hill,45.48,-76.82
Baltics Corners,45.32,-74.79
Baltimore,45.88,-64.8
Baltimore,44.02,-78.14
Balvenie,45.26,-77.06
Balwin,53.58,-113.45
Bamberg,43.48,-80.68
Banbury,45.45,-79.52
Banda,44.28,-80.06
Banff Trail,51.06,-114.11
Banff Training Area,51.21,-115.53
Bangor,44.21,-66.09
Bangor,50.8,-102.34
Bangor Lodge,45.04,-79.39
Bangs Falls,44.24,-64.83
Bankeir,49.71,-120.23
Bankend,51.5,-103.84
Bankfield,49.69,-87.08
Banks,44.48,-80.35
Bankview,51.03,-114.1
Banner,43,-80.98
Bannerman,53.59,-113.37
Bannon,46.37,-67.46
Bapaume,53.38,-107.66
Baptiste,45.09,-77.97
Baptiste Louis 8,53.75,-125.38
Baptiste Meadow 2,51.99,-122.55
Bar Point,42.05,-83.11
Bar River,46.44,-84.02
Bar Road,45.09,-67.05
Barachois-Nord,48.63,-64.29
Barachois-Ouest,48.61,-64.31
Baranow,53.6,-113.53
Barb,45.51,-74.53
Barbers Bay,48.61,-80.9
Barber's Beach,43.42,-80.27
Barclay,44.29,-79.61
Barcovan Beach,44.02,-77.62
Bar-de-Cocagne,46.41,-64.62
Bardsville,45.09,-79.43
Bare Island 9,48.63,-123.28
Bareneed,47.57,-53.24
Barford,45.11,-71.79
Baring,50.25,-103.05
Barkers Point,45.95,-66.62
Barkerville,53.06,-121.51
Barkfield,49.33,-96.8
Barkhouse Settlement,44.94,-62.37
Barkmere,46,-74.58
Barkway,44.9,-79.17
Barlochan,45.03,-79.48
Barlow Creek,53.03,-122.43
Barnaby River,46.88,-65.51
Barnesdale,43.18,-79.27
Barnet,49.3,-122.91
Barnettville,46.76,-65.8
Barneys River Station,45.59,-62.26
Barnhart,48.72,-93.78
Barnhartvale,50.65,-120.16
Barnston Island,49.2,-122.71
Barnston Island 3,49.18,-122.69
Barnston-Ouest,45.1,-71.96
Barons,49.99,-113.08
Barony,45.97,-67.18
Barr Settlement,45.13,-63.62
Barra Glen,45.97,-60.84
Barra Head,45.67,-60.78
Barrachois,45.93,-61.845
Barrage-McLaren,45.84,-75.65
Barrage-Mistigougèche,48.17,-68.02
Barrage-Sainte-Marguerite,50.21,-66.65
Barr'd Harbour,50.81,-57.05
Barren Hill,45.68,-60.59
Barrett Chute,45.25,-76.75
Barrett Lake,54.45,-126.75
Barretville,42.09,-82.85
Barrhaven,45.27,-75.76
Barrieau,46.77,-65.27
Barriefield,44.24,-76.46
Barriefield Range and Training Area,44.24,-76.46
Barrier Ford,52.54,-103.71
Barriere,51.17,-120.12
Barriere River 3A,51.19,-120.11
Barrière-de-Laterrière,48.24,-71.25
Barrière-Mésy,48.26,-71.67
Barrillia Park,44.45,-79.49
Barrington Passage,43.52,-65.6
Barrington West,43.56,-65.59
Barronsfield,45.73,-64.35
Barrow Bay,44.95,-81.22
Barrowtown,49.1,-122.1
Barrydowne,46.51,-80.94
Barrymere,45.39,-77.66
Barryvale,45.28,-76.72
Barsa Subdivision,45.36,-65.96
Barss Corner,44.56,-64.68
Barter Settlement,45.2,-67.33
Bartholomew,46.7,-65.9
Bartibog,47.18,-65.4
Bartibog Bridge,47.09,-65.34
Bartlett Island 32,49.22,-126.08
Bartlett Island 7,50.32,-125.08
Bartletts Mills,45.2,-67.12
Barton,46.13,-67.03
Barton,44.53,-65.87
Bartonville,43.23,-79.8
Barville,48.51,-77.68
Barwick,48.64,-93.98
Bas-Cap-Pelé,46.23,-64.26
Bas-de-la-Baie,47.41,-70.51
Bas-de-l'Anse,47.7,-70.03
Bas-de-Sainte-Rose,45.65,-73.74
Base des Forces canadiennes Bagotville,48.32,-70.98
Base des Forces canadiennes Borden,44.26,-79.91
Base des Forces canadiennes Chilliwack,49.1,-121.96
Base des Forces canadiennes Cold Lake,54.4,-110.27
Base des Forces canadiennes Comox,49.71,-124.9
Base des Forces canadiennes Esquimalt,48.43,-123.42
Base des Forces canadiennes Gagetown,45.83,-66.45
Base des Forces canadiennes Goose Bay,53.3,-60.41
Base des Forces canadiennes Greenwood,44.98,-64.92
Base des Forces canadiennes Halifax,44.65,-63.58
Base des Forces canadiennes Kingston,44.24,-76.44
Base des Forces canadiennes Montréal,45.5,-73.42
Base des Forces canadiennes Moose Jaw,50.34,-105.55
Base des Forces canadiennes North Bay,46.35,-79.41
Base des Forces canadiennes Petawawa,45.91,-77.29
Base des Forces canadiennes Shilo,49.8,-99.63
Base des Forces canadiennes Suffield,50.27,-111.17
Base des Forces canadiennes Trenton,44.11,-77.54
Base des Forces canadiennes/unité de soutien de secteur Valcartier,46.96,-71.55
Basin Depot,45.72,-77.78
Basin Mines,46.61,-80.65
Basingstoke,43.1,-79.62
Baskin's Beach,45.47,-76.01
Basque 18,50.63,-121.32
Bass Creek,45.8,-82.01
Bass Lake Park,44.61,-79.48
Bass River Point,46.55,-65.04
Basse-Aboujagane,46.13,-64.41
Basse-Ville,45.43,-75.69
Basse-Ville,46.81,-71.23
Bassin,47.22,-61.93
Bassin-du-Lièvre,45.54,-75.43
Basswood,50.3,-100.03
Basswood Ridge,45.31,-67.35
Bastarache,46.45,-64.89
Batchelor Hills,50.71,-120.36
Bateman,50,-106.74
Batemans Mills,46.23,-64.62
Bates Settlement,46,-67.32
Bateston,46,-59.9
Bathurst Mines,47.4,-65.79
Batiscan,46.5,-72.25
Bat-l-ki 3,50.89,-126.4
Batteaux,44.46,-80.17
Battrum,50.55,-108.33
Baturyn,53.63,-113.5
Bauline,47.7,-52.81
Baxters Corners,45.16,-75.79
Baxters Harbour,45.22,-64.51
Bay Beach,42.86,-79.07
Bay du Vin,47.04,-65.13
Bay du Vin Beach,47.05,-65.13
Bay Road,45.21,-67.22
Bay Road Valley,46.96,-60.47
Bay St. Lawrence,47,-60.46
Bay View,45.37,-65.49
Bay View,47.08,-55.21
Bay View,45.19,-64.225
Bayard,46.36,-74.82
Bayard,50.02,-105.28
Bayers Settlement,44.74,-63.14
Bayfield Inlet,45.62,-80.49
Bayham,42.75,-80.79
Bayhead,45.73,-63.36
Bayport,44.32,-64.31
Bayshore,47.37,-64.94
Bayshore,45.34,-75.8
Bayshore Estates,44.36,-79.62
Bayswater,45.35,-66.13
Bayswater,44.5,-64.06
Bayswater,46.08,-80.75
Baytona,49.33,-54.78
Bayview,50.96,-114.1
Bayview,44.655,-80.3975
Bayview Beach,44.23,-79.53
Bayview Heights,53.13,-108.39
Bayview Park,44.85,-79.81
Bayview Point,44.61,-80.94
Bayview Village,43.77,-79.38
Baywood Park,44.51,-79.43
Beach Grove,49.03,-123.05
Beach Meadows,44.06,-64.63
Beachcomber Bay,50.24,-119.37
Beachside,49.64,-55.89
Beacon Heights,53.57,-113.4
Beacon Heights,45.45,-75.63
Beacon Hill,54.35,-109.65
Beacon Hill North,45.45,-75.6
Beacon Hill South,45.44,-75.59
Beaconia,50.44,-96.55
Beaconsfield,46.045,-67.58
Beaconsfield,44.85,-65.32
Beaconsfield,43.04,-80.61
Beaconsfield,45.43,-73.86
Beadle,51.46,-109
Beales Mills,44.57,-75.97
Bealton,42.99,-80.22
Bear Bay 8,50.83,-124.95
Bear Cave,45.31,-79.6
Bear Cove,44.53,-63.54
Bear Creek,56.29,-108.94
Bear Island,45.92,-67.02
Bear Island,46.97,-80.07
Bear Island 1,46.98,-80.07
Bear Lake (Fort Connelly) 4,56.19,-126.86
Bear Lake (Tsaytut Bay) 1B,56.1,-126.79
Bear Lake (Upper Driftwood River) 1A,55.97,-126.64
Bear Line,42.44,-82.29
Bear Mountain,48.46,-123.52
Bear Point,43.48,-65.65
Bear Point,44.39,-79.54
Bear River,44.57,-65.63
Bear River (Sustut River) 3,56.27,-126.96
Bear River 6,44.55,-65.61
Bear River 6A,44.66,-65.47
Bear River 6B,44.7,-65.5
Bear River East,44.6,-65.59
Bear River North,46.43,-62.36
Bear River South,46.38,-62.35
Bear Valley,45.96,-79.71
Bearbrook,45.38,-75.33
Beardy's & Okemasis 96 & 97-A,51.63,-104.36
Beardy's & Okemasis 96 & 97-B,52.8,-106.45
Beardy's & Okemasis 96 & 97-C,52.96,-106.45
Beardy's 97 and Okemasis 96,52.82,-106.33
Bearspaw,53.44,-113.5
Beaton River 204 (North Half),56.73,-120.8
Beaton River 204 (South Half),56.72,-120.81
Beatrice,45.15,-79.38
Beatty,45.02,-76.74
Beatty,52.9,-104.8
Beaubassin East,46.17,-64.31
Beaubassin-Est,46.17,-64.31
Beaubier,49.12,-104.07
Beaucage,46.35,-79.65
Beauceville-Est,46.2,-70.76
Beauchampville,45.57,-75.42
Beaudoin-Centre,45.87,-71.57
Beaudry,48.11,-79.15
Beaufield,51.75,-109.1
Beaufort,46.58,-67.28
Beauglen,48.26,-65.94
Beaulac,46.03,-73.9
Beauly,45.52,-61.81
Beaumaris,53.6,-113.5
Beaumaris,45.07,-79.49
Beaumonde Heights,43.74,-79.57
Beaumont-Est,46.8,-70.96
Beauport,46.86,-71.18
Beaupré,47.05,-70.9
Beaurepaire,45.41,-73.88
Beauséjour,48.37,-68.53
Beauval Forks 1920,55.1,-107.7
Beauvallon,53.65,-111.36
Beaux-Rivages,46.55,-75.25
Beaver Bank,44.82,-63.68
Beaver Brook,45.69,-64.79
Beaver Brook,45.3,-63.42
Beaver Brook Station,47.12,-65.6
Beaver Cove,50.53,-126.86
Beaver Cove,46.06,-60.55
Beaver Crossing,54.36,-110.2
Beaver Dam,45.78,-66.69
Beaver Dam,45.02,-62.76
Beaver Dams,43.1,-79.21
Beaver Falls,49.08,-117.58
Beaver Flat,50.66,-107.66
Beaver Harbour,45.07,-66.74
Beaver Harbour,44.89,-62.41
Beaver Islands 8,54.46,-124.5
Beaver Lake,54.76,-111.9
Beaver Lake,48.5,-123.39
Beaver Lake,46.34,-81.49
Beaver Lake 131,54.66,-111.87
Beaver Lake 17,45.02,-62.76
Beaver Meadow,45.56,-62.1
Beaver Meadow,42.71,-82.24
Beaver Mines,49.45,-114.19
Beaver Point,48.76,-123.38
Beaver Ranch 163,58.43,-115.74
Beaver Ranch 163a,58.46,-115.71
Beaver Ranch 163b,58.52,-115.79
Beaver River,44,-66.14
Beaverdale,44.4,-80.61
Beaverdam Lake,43.66,-65.42
Beaverley,53.81,-122.88
Beavers Corner,43.07,-80.01
Beaverstone Bay,46,-81.15
Bechard,50.05,-104.21
Becher,42.65,-82.35
Becher Bay 1,48.33,-123.59
Becher Bay 2,48.32,-123.59
Becketts Bridge,42.97,-79.37
Becketts Creek,45.51,-75.35
Becketts Landing,45.05,-75.68
Becketville,47.89,-65.99
Beckim Settlement,46.3,-67.72
Beckstead,45.04,-75.17
Beckwith,45.83,-63.81
Beckwith,45.08,-76.09
Beddington Heights,51.12,-114.07
Bedec,46.68,-64.77
Bedell,44.99,-75.63
Bedell Settlement,46.13,-67.65
Bedeque,46.33,-63.72
Bedford Mills,44.6,-76.4
Bedford Park,43.73,-79.4
Bedford Range,44.74,-63.66
Bedford Road,46.88,-67.48
Beebe,45.01,-72.14
Beech Beach,46.11,-83.89
Beech Corners,44.94,-77.05
Beech Glen,46.69,-67.68
Beech Grove,45.55,-76.16
Beech Hill,45.9,-64.76
Beech Hill,44.98,-63.08666667
Beech Hill Farms,43.98,-64.79
Beechmont,46.08,-60.37
Beechmount,45.06,-77.96
Beechville,44.63,-63.68
Beechwood Park,44.66,-63.64
Beersville,46.44,-65.07
Bees 6,53.92,-128.74
Beeton,44.08,-79.78
Beinn Bhreagh,46.11,-60.71
Bel Air Heights,45.35,-75.75
Bel Air Park,45.35,-75.76
Bel Ayr Park,44.67,-63.51
Belair,46.06,-64.83
Bélair,50.6,-96.55
Bélair,46.85,-71.43
Bel-Aire,51,-114.08
Belanger,46.56,-81.13
Belangers Corner,45.4,-76.71
Belbutte,53.36,-107.81
Belcarra,49.31,-122.91
Belcher Street,45.08,-64.46
Belcourt,48.4,-77.35
Belcreft Beach,42.01,-82.98
Belfast,43.91,-81.55
Belfast,46.07,-62.87
Belford,43.88,-79.18
Belfountain,43.79,-80.01
Belgravia,53.5,-113.53
Belhaven,44.26,-79.42
Bell Ewart,44.27,-79.54
Bell Falls,45.77,-74.68
Bell Grove,46.91,-67.56
Bell Grove,46.47,-80.99
Bell Neck,43.87,-65.9
Bell Rapids,45.38,-77.79
Bella Bella,52.16,-128.14
Bella Bella 1,52.15,-128.15
Bella Coola 1,52.37,-126.72
Bella Lake Exchange Lands,53.88,-94.55
Bellamys,44.7,-75.79
Bellamys Mill,44.72,-76.02
Bellburns,50.32,-57.52
Belle Air Beach,44.28,-79.53
Belle Côte,46.44,-61.09
Belle Plaine,50.39,-105.15
Belle Vallée,47.65,-79.59
Belle-Anse,48.62,-64.22
Bellecombe,48.09,-78.93
Belledune River,47.91,-65.88
Belle-eau-Claire Beach,44.72,-80.05
Bellefeuille,46.62,-74.75
Bellefleur,47.11,-67.87
Bellefond,47.11,-65.64
Bellegarde,49.53,-101.54
Belleisle,44.8,-65.4
Belle-Marche,46.61,-60.99
Bellerive-sur-le-Lac,46.39,-74.99
Belle-Rivière,45.62,-74.09
Belleview,49.6,-100.85
Belleview Beach,42.86,-79.35
Belleville North,43.86,-65.93
Belleville South,43.84,-65.91
Bellevue,51.57,-113.895
Bellevue,47.005,-73.175
Belley,47.54,-70.48
Bellheck,44.52,-76.96
Bellis,54.14,-112.15
Belliveau Village,45.94,-64.61
Bellmans Cove,48.55,-58.75
Bellrock,44.47,-76.76
Bells Corners,45.125,-76.09
Bells Crossing,44.75,-75.82
Bells Mills,46.62,-64.79
Bellsite,52.59,-101.05
Bellwood,45.41,-77.03
Belmeade,45.12,-75.49
Belmina,45.98,-71.47
Belmont Park,48.43,-123.46
Belmore,43.95,-81.18
Belnan,44.99,-63.52
Belton,43.17,-81.13
Belval,46.54,-70.81
Belvedere,53.6,-113.43
Belvédère,45.35,-73.9
Belvédère-Heights,45.34,-71.89
Belyeas Cove,45.71,-66
Ben Eoin,45.96,-60.45
Ben Lomond,45.33,-65.9
Benacadie,45.94,-60.72
Benalto,52.3,-114.27
Bénard,49.91,-97.84
Benchlands,51.28,-114.8
Bendale,43.76,-79.25
Benjamin River,47.95,-66.16
Benmiller,43.72,-81.62
Bennett Bay,45.23,-64.46
Bennies Corners,45.25,-76.26
Bennington,43.19,-80.95
Bennington Heights,43.69,-79.37
Benny,46.78,-81.62
Benoit,47.48,-64.96
Benoit,45.3,-75.16
Benoits Siding,47.82,-59.19
Bensfort Corners,44.17,-78.28
Benson,49.45,-103.01
Benson Corner,45.21,-67.19
Bent River,45.21,-79.54
Bentinck,44.25,-80.87
Bentinck Island Range,48.31,-123.54
Bentpath,42.71,-82.17
Benvoulin,49.88,-119.43
Benyks Point,51.56,-99.56
Berens River 13,52.34,-96.98
Bergland,48.95,-94.38
Bergman,53.51,-113.4
Berkshire Village,42.96,-81.27
Bernatchez,46.63,-70.11
Bernières,46.68,-71.35
Berriedale,45.66,-79.38
Berry,48.81,-78.26
Berry Mills,46.1,-64.93
Berry Mills Heights,46.1,-64.85
Berryton,45.88,-64.87
Berryton,44.46,-76.19
Berthier-sur-Mer,46.91,-70.73
Bertwell,52.58,-102.56
Bervie,44.13,-81.5
Berwick North,45.05,-64.74
Berwick West,45.02,-64.76
Berylvale,48.95,-80.99
Bessemer,45.04,-77.63
Best's Harbour,47.57,-54.21
Bestwick,50.56,-120.08
Béthanie,45.5,-72.43
Bethel,45.15,-66.91
Bethel,43.985,-77.64
Béthel,45.58,-72.35
Bethesda,44.1,-78.71666667
Bethune Bush,45.05,-75.24
Betsiamites,49.03,-68.69
Bettsburg,46.46,-66.25
Betty Creek 18,52.91,-125.4
Betula Beach,53.54,-114.66
Beulah,50.26,-101.03
Beulah,45.61,-66
Beveridge Locks,44.87,-76.13
Beverley,50.26,-107.96
Beverley Acres,43.87,-79.41
Beverley Hills,44.19,-79.47
Beverley Isles,44.19,-79.48
Beverly Heights,53.56,-113.4
Bexley,44.65,-78.91
Bickford,42.76,-82.42
Bidwell,45.8,-81.98
Bield,51.22,-101.15
Bieman's Corners,44,-80.99
Bienvenu,48.8,-79.23
Big Baddeck,46.14,-60.79
Big Bar Creek,51.18,-122.13
Big Bay Point,44.4,-79.51
Big Black River,53.16,-97.42
Big Bras d'Or,46.28,-60.41
Big Brook,45.78,-61.22
Big Cedar,44.57,-78.17
Big Cedar Point,44.29,-79.52
Big Chute,44.88,-79.67
Big Eddy,51,-118.21
Big Eddy Settlement,53.85,-101.32
Big Farm,46.1,-60.82
Big Fork,48.52,-93.67
Big Grassy River 35G,49.05,-94.3
Big Harbour,46.14,-60.6
Big Harbour Island,45.86,-60.94
Big Hole,47.04,-65.82
Big Hole Brook,46.57,-66.21
Big Hole Tract 8 (North Half),47.06,-65.79
Big Hole Tract 8 (South Half),47.03,-65.79
Big Horn 144A,52.38,-116.24
Big Intervale,46.44,-60.93
Big Intervale Cape North,46.84,-60.59
Big Island,45.66,-62.42
Big Island 31D,49.12,-94.63
Big Island 31E,49.13,-94.6
Big Island 31F,49.16,-94.64
Big Island 37,49.17,-94.76
Big Island Lake Cree Territory,54.42,-109.59
Big Island Mainland 93,49.08,-94.3
Big Joe's Meadow 7,52.43,-122.62
Big Lake,44.52,-63.86
Big Lake,45.74,-82.05
Big Lots,44.41,-64.4
Big Marsh,45.81,-61.605
Big Pond,45.92,-60.52
Big Pond Centre,45.88,-60.57
Big Prairie Settlement,55.59,-116.32
Big Ridge,45.94,-60.21
Big River 118,53.55,-107.12
Big River 118A,53.46,-107.04
Big Shell,53.19,-107.13
Big White,49.72,-118.92
Bigelow,47.29,-79.51
Biggar Ridge,46.54,-67.28
Bigney,45.72,-63
Bigwin,45.24,-79.02
Bigwood,46.03,-80.6
Bihl' K' A 18,55,-125.38
Bihl' K'a Chah 20,54.57,-125
Bihlk'a 6,54.56,-124.9
Bill Lake 37,54.4,-130.05
Billings,45.875,-82.22
Billings Bridge,45.38,-75.67
Bill's Corners,42.81,-80.37
Billtown,45.12,-64.57
Bilodeau,48.32,-72.15
Binche 10,54.58,-124.27
Binche 12,54.61,-124.44
Binche 2,54.57,-124.5
Binche Bun 7,54.61,-124.43
Bindloss,50.88,-110.27
Binkham,43.81,-80.1
Binta Lake 2,53.85,-125.43
Birch Cliff,43.68,-79.27
Birch Cove,53.95,-114.36
Birch Cove,44.68,-63.66
Birch Grove,46.12,-59.95
Birch Haven,46.32,-79.41
Birch Hill,45.2,-63.17
Birch Landing,50.65,-96.59
Birch Manor,45.42,-75.76
Birch Plain,46.5,-60.43
Birch Point,44.51,-78.59
Birch Portage 184A,54.88,-102.6
Birch Ridge,46.52,-66.29
Bircham,51.45,-113.43
Birchcliff,52.36,-114.11
Birchland Manor,49.26,-122.75
Birchmount Park,43.71,-79.26
Birchton,45.37,-71.66
Birchtown,43.74,-65.38
Birchwood,45.7,-63.78
Birchwood,43.52,-79.62
Birchy Cove,49.68,-56.02
Birchy Head,44.57,-64.04
Bird,56.5,-94.21
Bird Cove,51.04,-56.93
Birdell,44.16,-80.5
Birds Creek,45.1,-77.87
Birds Hill,49.97,-97
Bird's Point,50.54,-102.34
Birdsalls,44.28,-78.05
Birdtail Creek 57,50.26,-101.16
Birdtail Hay Lands 57A,50.21,-101.11
Birdtail Sioux,50.26,-101.15
Birdtail Sioux Dakota Nation 57C,50.52,-101.15
Birdton,46.11,-66.82
Birge Mills,43.66,-80.25
Birkendale,45.29,-78.97
Birmingham,50.96,-102.93
Birnam,43.05,-81.87
Birnie,50.44,-99.44
Birnie Island 18,54.59,-130.45
Birr,43.12,-81.33
Birsay,51.1,-106.98
Biscotasing,47.29,-82.1
Bishop Bluffs 10,53.09,-124.32
Bishop Bluffs 5,53.06,-124.3
Bishop Bluffs 6,53.08,-124.31
Bishop Corners,44.78,-77.17
Bishop's Cove,47.63,-53.23
Bishops Falls South,49,-55.49
Bishops Mills,44.87,-75.7
Bishopsgate,43.1,-80.4
Bishopville,45.02,-64.25
Bismarck,43.04,-79.5
Bisseltown,44.68,-75.67
Bisset,53.45,-113.39
Bissett Creek,46.22,-78.06
Bistcho Lake 213,59.64,-118.46
Bittern Lake 218,53.89,-105.82
Black Avon,45.54,-61.78
Black Bank,44.22,-80.15
Black Bay,45.87,-77.36
Black Bridge,44.98,-79.25
Black Brook,45.77,-61.03
Black Cape,48.13,-65.82
Black Creek,49.83,-125.13
Black Creek,43.47,-78.025
Black Donald,45.22,-76.9
Black Duck Cove,48.28666667,-54.46
Black Duck Pond,47.57,-53.26
Black Horse Corner,43.08,-79.19
Black Lake,46.04,-71.36
Black Lake,59.13,-105.6
Black Pines,50.93,-120.25
Black Point,47.94,-66.1
Black Point,45.77666667,-62.35333333
Black Point,56.36,-109.44
Black Rapids,44.5,-76.09
Black River,46.115,-65.545
Black River,45.59333333,-62.90666667
Black River,45.07,-74.87
Black River 9,50.82,-96.31
Black River Bridge,47,-65.28
Black River Lake,44.97,-64.37
Black River Road,45.26,-65.97
Black River Road,45.72,-63.93
Black River-Matheson,48.51,-80.16
Black Rock,47.74,-65.23
Black Rock,45.73,-62.58
Black Slate 11,53.23,-132.26
Black Sturgeon,56.83,-100.57
Blackburn,45.43,-75.54
Blackburn Hamlet,45.43,-75.56
Blackcomb,50.11,-122.94
Blacketts Lake,46.06,-60.32
Blackhead,47.52,-52.65
Blackheath,43.07,-79.82
Blackland,46.595,-66.75
Blackpool,51.6,-120.1
Blackpool,45.01,-73.45
Blacks Corners,44.14666667,-78.76
Blackstock,44.1,-78.81
Blackstone,46.12,-61.3
Blackstone Lake,45.24,-79.88
Blackwater,44.23,-79.05
Blackwater 1,53.33,-122.88
Blackwater Meadow 11,52.72,-125.52
Blackwell,43.02,-82.31
Bladworth,51.36,-106.13
Blaeberry,51.43,-117.06
Blagousse,47.47,-70.37
Blair,43.38,-80.38
Blair Athol,47.94,-66.55
Blairhampton,45.02,-78.65
Blairs Settlement,44.63,-76.4
Blairton,44.46,-77.76
Blake,43.45,-81.65
Blakeney,45.26,-76.24
Blanchard Road,45.47,-62.47
Blanchards Hill,44.78,-76.09
Blanchard's Landing,46.28,-79.02
Blanche,43.5,-65.4
Blanche,45.74,-75.34
Blanche-Mills,45.61,-75.24
Blandford,44.49,-64.1
Blandford-Blenheim,43.24,-80.58
Blaney Ridge,45.79,-67.15
Blantyre,44.5,-80.63
Blessington,44.26,-77.26
Blewett,49.47,-117.4
Blezard,44.29,-78.09
Blezard Valley,46.6,-81.05
Blind Channel,50.41,-125.5
Blind Creek 6,49.18,-119.73
Blind Creek 6A,49.19,-119.75
Blink Bonnie,43.29,-80.64
Blissfield,46.58,-66.06
Block 14,46.75,-65.32
Blockhouse,44.44,-64.41
Blomidon,45.22,-64.36
Blood 148,49.51,-113.18
Blood 148A,49.04,-113.7
Bloodvein 12,51.77,-96.68
Bloomfield Ridge,46.02,-66.08
Bloomingdale,43.5,-80.46
Bloomington,44.85,-64.99
Bloomington,44.63,-77.07
Bloomsburg,42.88,-80.29
Bloordale Gardens,43.63,-79.56
Blossom Park,45.34,-75.62
Blouin,46.7,-71
Blount,43.96,-80.02
Blowdown,46.02,-67.76
Blubber Bay,49.78,-124.61
Blucher,52.01,-106.2
Blucher Hall,51.1,-120.01
Blue Bell Corner,46.94,-67.61
Blue Church,44.68,-75.55
Blue Cove,51.09,-56.87
Blue Hill,46.63,-67.77
Blue Hills,45.88,-74.28
Blue Lake 24,54.99,-123.09
Blue Mountain,45.175,-63.475
Blue Mountain,44.67,-77.94
Blue Mountain Bend,47.09,-67.27
Blue Mountain Settlement,47.54,-65.67
Blue Quill,53.46,-113.53
Blue Quill Estates,53.45,-113.52
Blue Quills First Nation,53.99,-111.37
Blue River 1,59.7,-128.96
Blue Rocks,44.35,-64.24
Blue Sea,46.2,-76.08
Blue Springs,43.61,-80.09
Blue Water Beach,43.71,-81.72
Blueberry River 205,56.7,-121.1
Blueridge,49.32,-122.99
Blues Mills,45.92,-61.19
Bluevale,43.85,-81.25
Bluewater Beach,44.62,-79.99
Blumenfeld,49.05,-97.95
Blumenheim,52.4,-106.41
Blumenhof,50.01,-107.7
Blumenort South,49,-97.65
Blumenthal,52.48,-106.38
Blytheswood,42.12,-82.59
Boat Harbour West 37,45.65,-62.65
Bobby Cove,49.82,-55.75
Bobs Lake,44.64,-76.65
Bocabec,45.17,-66.98
Bocabec Cove,45.16,-67.03
Bodmin,53.75,-107
Bogart,44.49,-77.24
Bogarttown,44.04,-79.42
Boggy Creek,51.53,-101.35
Bogies Beach,43.81,-81.72
Bognor,44.52,-80.74
Bogton,45.06,-73.5
Boharm,50.4,-105.71
Boileau,45.91,-74.76
Boilleau,48.09,-70.82
Bois-Blanc,47.62,-65.08
Bois-Blanc,46.24,-73.12
Boisbriand,45.61,-73.83
Bois-Brûlé,48.71,-64.29
Boischatel,46.9,-71.15
Boisdale,46.09,-60.5
Bois-des-Bel,47.95,-69.43
Bois-des-Filion,45.66,-73.75
Bois-Franc,46.5,-75.98
Bois-Gagnon,47.52,-65.17
Boishébert,47.56,-64.98
Boisjoli,46.45,-64.75
Boisville,47.37,-61.93
Boland's Bay,46.65,-80.76
Bolger,45.68,-80.11
Bolingbroke,44.75,-76.51
Bolsover,44.53,-79.05
Bolton Centre,45.2,-72.35
Bolton Forest,45.29,-72.28
Bolton Glen,45.2,-72.43
Bolton-Est,45.2,-72.35
Bolton-Ouest,45.23,-72.45
Bon Air,46.01,-80.57
Bon Echo,44.89,-77.19
Bona Vista,45.26,-79.07
Bonaparte 3,50.85,-121.36
Bonarlaw,44.42,-77.62
Bonaventure Industrial,53.58,-113.56
Bonaventure-Est,48.02,-65.46
Bonavista,48.63,-53.1
Bonavista Downs,50.94,-114.03
Bond Head,44.08,-79.67
Bon-Désir,48.27,-69.47
Bondi Village,45.29,-79.01
Bondiss,54.59,-112.69
Bongard,44.05,-76.95
Bongard Corners,44.05,-76.92
Boninville,46.59,-81.09
Bonnechere,45.64,-77.57
Bonnechere Valley,45.45,-77.13
Bonne-Espérance,51.38,-57.66
Bonnet Hill,53.9,-122.61
Bonney Road,45.47,-65.84
Bonnie Beach,44.56,-79.3
Bonnie Doon,53.51,-113.46
Bonnington Falls,49.46,-117.48
Bonnyville Beach,54.23,-110.86
Bonsecours,45.41,-72.28
Bon-Secours,46.36,-65.03
Bonshaw,46.19,-63.35
Bonville,45.12,-74.82
Bookton,42.94,-80.5
Boom Road,46.95,-65.78
Bootahnie 15,50.4,-121.53
Booth,46.19,-79.33
Booth Landing,46.14,-79.2
Boothroyd,49.96,-121.48
Boothroyd 13,49.98,-121.49
Boothroyd 5A,49.98,-121.48
Boothroyd 5B,49.96,-121.49
Boothroyd 5C,49.96,-121.47
Boothroyd 6A,50,-121.5
Boothroyd 6B,50.01,-121.51
Boothroyd 8A,50.04,-121.53
Boothville,44.14,-80.62
Bordeaux,45.54,-73.69
Borden Farm,45.35,-75.73
Borden Range and Training Area,44.27,-79.95
Bordenwood,44.71,-77.04
Borneo,45.28,-61.9
Bornholm,43.53,-81.14
Bornish,43.1,-81.67
Borups Corners,49.58,-92.32
Boscobel,45.5,-72.39
Boskung,45.07,-78.75
Boston,43.27,-80.09
Boston Bar 10,49.85,-121.4
Boston Bar 11,49.8,-121.45
Boston Bar 1A,49.83,-121.42
Boston Bar 8,49.84,-121.42
Boston Bar 9,49.87,-121.43
Boston Creek,48.01,-79.93
Boston Mills,43.76,-79.92
Boswarlos,48.57,-58.82
Boswell,49.45,-116.76
Bosworth,43.78,-80.64
Botany,42.49,-81.98
Bothwell's Corner,44.57,-80.87
Botsford Portage,46.19,-64.24
Bottle Lake 61B,50.62,-100.17
Boucher,47.4,-68.34
Bouchie Lake,53.01,-122.6
Boucks Hill,44.98,-75.21
Boudreau,46.22,-64.48
Boudreau Road,47.63,-64.94
Boudreau Village,45.91,-64.6
Boudreau-Corners,45.17,-71.76
Boudreauville,45.5,-60.96
Bougainville,48.65,-64.26
Boularderie Centre,46.19,-60.52
Boularderie East,46.23,-60.47
Boulder Creek 5,51.46,-120.13
Boulderwood,44.62,-63.59
Boulogne,45.84,-72.65
Boulter,45.21,-77.63
Boundary,47.37,-68.72
Boundary Bay,49,-123.03
Boundary Creek,46.05,-65
Bourdages Corner,46.72,-84.29
Bourdeau,45.5,-79.54
Bourgault,47.19,-70.28
Bourgeois,46.35,-64.53
Bourgeois Mills,46.17,-64.41
Bourg-la-Reine,46.89,-71.25
Bourg-Louis-Station,46.85,-71.77
Bourg-Royal,46.88,-71.25
Bourkes,48.29,-80.22
Bourlamaque,48.1,-77.76
Bowen Corner,45.07,-77.69
Bowen Island,49.37,-123.34
Bowermans,44,-77.36
Bowers Beach,44.48,-80.14
Bowling Green,43.94,-80.25
Bowman,45.91,-75.66
Bown,45.47,-71.42
Bowness,51.08,-114.16
Bowood,43.08,-81.53
Bowser,49.43,-124.66
Box Alder,48.56,-93.67
Box Grove,43.85,-79.23
Boyds,45.09,-76.25
Boyds Corner,46.26,-66.82
Boyer,46.85,-70.87
Boyer 164,58.45,-116.26
Boyer Settlement,58.45,-116.06
Boyle Street,53.55,-113.47
Boylston,45.43,-61.5
Boyne,43.48,-79.83
Boynton,45.11,-72.08
Brabant,56.11,-103.75
Bracken,49.17,-108.09
Brackenrig,45.11,-79.52
Brackley,46.3,-63.14
Brada,52.71,-108.18
Bradburn Subdivision,42.87,-80.75
Bradens Bay,44.45,-79.49
Bradley,43.29,-81.85
Bradley Corner,46.39,-67.7
Bradlo,49.6,-83.64
Brador,51.46,-57.24
Bradshaw,43.71,-79.455
Bradwardine,49.99,-100.46
Bradwell,51.94,-106.23
Brady Lake,45.04,-78.83
Braeheid Survey,43.33,-79.91
Braemar,43.19,-80.84
Braemar Heights,48.41,-123.5
Braemar Park,45.36,-75.75
Braeshore,45.7,-62.65
Bralorne,50.76,-122.81
Bramalea,43.72,-79.71
Bramalea Woods,43.71,-79.73
Bramber,45.18,-64.14
Brancepeth,53,-105.26
Branch LaHave,44.44,-64.62
Branchton,43.3,-80.26
Brander Gardens,53.49,-113.57
Brandy Point,43.43,-81.22
Brant Hills,43.36,-79.84
Bras d'Or,46.25,-60.28
Bras-d'Apic,46.95,-70.18
Brass Hill,43.55,-65.6
Brasset,48.81,-64.57
Bray Lake,45.88,-79.41
Brazeau Dam,52.97,-115.58
Brazil Lake,43.99,-66
Bread and Cheese,47.31,-52.79
Breadalbane,46.73,-65.88
Breadalbane,45.47,-74.58
Breadalbane,46.35,-63.5
Breau Creek,45.96,-64.51
Breau Road,47.29,-65.12
Breault,46.19,-72.33
Breau-Village,46.37,-64.63
Brébeuf,46.06,-74.66
Brèche-à-Manon,48.4,-64.44
Brechin Beach,44.53,-79.2
Brechin Point,44.53,-79.2
Breckenridge,45.47,-75.95
Bremen,52.36,-105.7
Brennan's Hill,45.78,-75.95
Brent,46.03,-78.48
Brentha,47.78,-79.9
Brenton,43.96,-66.04
Brent's Cove,49.93,-55.7
Brentwood,51.08,-114.13
Brentwood,45.22,-63.28
Brentwood,44.34,-79.93
Brentwood Bay,48.58,-123.45
Brentwood Park,49.27,-122.99
Bresaylor,52.96,-108.76
Brest,46.46,-65
Bretagneville,46.71,-65.03
Brethour,47.71,-79.56
Breton Cove,46.45,-60.46
Brevoort Park,52.11,-106.61
Brew Bay,49.76,-124.38
Brewer Lake,44.4,-76.32
Brewers Mills,46.06,-67.01
Brewers Mills,44.41,-76.3
Brewster Bay,50.77,-96.98
Briar Lake,44.14,-65.96
Briargreen,45.33,-75.78
Briars Park,44.32,-79.34
Brickley,44.25,-77.93
Brickton,44.9,-65.12
Bridal Falls,49.18,-121.73
Bridesville,49.03,-119.15
Bridge End,45.26,-74.44
Bridge Lake,51.48,-120.71
Bridge River 1,50.79,-122.02
Bridge River 2,50.79,-121.86
Bridgedale,46.06,-64.73
Bridgeford,50.93,-106.41
Bridgeland,51.05,-114.03
Bridgeport,46.2,-59.99
Bridgeport,43.48,-80.48
Bridgetown East,44.85,-65.24
Bridgetown North,44.85,-65.29
Bridgeview,49.21,-122.86
Bridgeview,44.67,-63.65
Bridgeview,42.29,-83.05
Bridgeview Survey,43.3,-79.9
Bridgeville,45.43,-62.6
Bridgeville,48.6,-64.32
Bridlewood,50.9,-114.11
Bridlewood,45.28,-75.85
Brier Hill,44.55,-76.16
Brier Industrial Estates,50.05,-110.72
Brierly Brook,45.6,-62.06
Brigade Lake,50.5,-120.3
Briggs Corner,46.215,-66.78
Briggs Spur,52.07,-100.65
Brigham,45.25,-72.85
Brigham Creek 3,51.76,-123.29
Brighouse,49.16,-123.13
Bright,43.26,-80.65
Brighton Beach,43.275,-81.28
Brightside,45.12,-76.49
Brightstone,50.28,-96.16
Brill,45.26,-72.43
Brilliant,49.32,-117.64
Brimstone,43.8,-80
Brinkman's Corners,45.14,-81.39
Brinsley,43.2,-81.53
Brinston,44.93,-75.35
Brisay,54.44,-70.51
Brisbane,43.74,-80.07
Brise-du-Lac,46.1,-74.04
Brisson,45.29,-75.32
Bristol Mines,45.49,-76.34
Bristol Ridge,45.62,-76.41
Bristol's Hope,47.72,-53.19
Britainville,45.73,-82.4
Britannia,51,-114.08
Britannia,48.14,-53.72
Britannia,44.75666667,-78.17666667
Britannia Bay,45.36,-75.79
Britannia Heights,45.36,-75.78
Britannia Road,45.27,-79.17
Britannia Youngstown,53.54,-113.6
British Properties,49.35,-123.13
British Settlement,45.87,-64.38
Britton,43.67,-80.92
Broad Cove,47.57,-54.22
Broad Cove,45.225,-62.855
Broad Cove Banks,46.22,-61.32
Broad Cove Chapel,46.25,-61.26
Broad Cove Marsh,46.29,-61.25
Broad Valley,50.98,-97.65
Broadacres,52.05,-108.98
Broadbent,45.44,-79.83
Broadlands,48,-66.76
Broadmoor,49.15,-123.13
Broadview Gardens,46.54,-84.38
Broadway,45.57,-62.36
Brochet 197,57.9,-101.58
Brock Gardens,43.29,-80
Brock Road,43.88,-79.08
Brocklehurst,50.7,-120.41
Brockley,42.91,-81.19
Brocks Beach,44.46,-80.1
Brocksden,43.38,-80.88
Brockton,44.18,-81.24
Brockway,45.52,-67.11
Broderick,51.48,-106.91
Broders Annex,50.44,-104.58
Brodeur,46.5,-76.06
Brodhagen,43.56,-81.2
Brodie,45.945,-77.76
Brokenhead 4,50.35,-96.6
Brome-Centre,45.22,-72.59
Bromhead,49.18,-103.66
Bromley,45.53,-76.88
Brompton,45.47,-71.94
Bronson,45.06,-77.78
Bronson Settlement,46.22,-65.72
Bronte,43.38,-79.71
Brook Cove,45.17,-72.22
Brook Village,46.05,-61.3
Brookbury,45.53,-71.53
Brooke,44.85,-76.43
Brooke-Alvinston,42.86,-81.9
Brookland,45.55,-62.92
Brooklet,45,-74.04
Brooklyn Corner,45.08,-64.57
Brooklyn Road,45.97,-64.26
Brooks Landing,45.43,-80.33
Brooks Mill,45.42,-79.01
Brooksby,53,-104.31
Brooksdale,43.22,-80.93
Brookside,53.49,-113.65
Brookside,47.42,-54.81
Brookside,44.96,-63.48
Brookside,43.97,-78.08
Brookswood,49.06,-122.66
Brookvale,45.98,-65.68
Brookvale,45.02,-63.1
Brookville,46.34,-67.73
Brookville,45.445,-63.585
Brookville,43.53,-80.04
Brossard,45.46,-73.45
Brosseau,53.79,-111.68
Brotherston,43.81,-80.96
Brougham,43.91,-79.1
Broughdale,43,-81.25
Broughton,46.08,-59.97
Broughton Station,46.17,-71.13
Broulan Reef,48.51,-81.13
Brouse,50.21,-117.75
Brouseville,44.83,-75.42
Brow of the Mountain,45.16,-64.56
Brower,49.01,-80.83
Brown Hill,44.22,-79.32
Brown House Corner,45.22,-74.56
Brown Industrial,53.58,-113.56
Browning,49.45,-102.63
Browning Island,44.99,-79.4
Brownlee,50.73,-106.01
Browns Brae,45.21,-79.03
Browns Corner,45.51,-66.14
Brown's Corners,43.84,-79.35
Brown's Hill,45.13,-72.1
Browns Yard,46.52,-65.07
Brownsburg-Chatham,45.68,-74.41
Brownsville,42.86,-80.83
Bruce,53.17,-112.03
Bruce Farm,45.33,-75.8
Bruce Station,46.31,-83.76
Brucedale,43.64,-80.18
Brucefield,43.52,-81.51
Bruces,43.27,-80.25
Bruceton,45.21,-77.39
Brucy,45.4,-73.95
Brudenell,45.44,-77.39
Brudenell,46.18,-62.61
"Brudenell, Lyndoch and Raglan",45.33,-77.41
Brule,45.73,-63.17
Brule Point,45.75,-63.19
Brule Shore,45.74,-63.23
Brumsfield,45.81,-77.13
Brunet,46.52,-75.44
Brunette Creek,49.23,-122.88
Brunetville,49.41,-82.4
Brunkild,49.59,-97.57
Brunner,43.52,-80.92
Brunskill,52.12,-106.64
Brunswick,44.2,-78.58
Bruxelles,49.48,-98.91
Bryanston,43.12,-81.26
Bryants Corner,46.47,-65.19
Bryant's Cove,47.67,-53.19
Bryant's Landing,45.18,-72.23
Bryenton,46.87,-65.68
B-Say-Tah,50.78,-103.83
Buck Creek,53.1,-114.89
Buck Lake 133C,52.88,-114.66
Buckfield,44.3,-64.78
Buckham's Bay,45.49,-76.1
Buckhorn,53.8,-122.65
Buckhorn,44.55,-78.35
Buckingham Heights,49.23,-122.95
Buckinghorse River,57.38,-122.85
Buckland,46.61,-70.54
Bucklaw,46.02,-60.97
Buckley,46.53,-84.36
Buckley Bay,49.53,-124.85
Buckley Settlement,45.9,-65.26
Bucktum 4,49.91,-121.44
Buctouche 16,46.45,-64.76
Buctouche-Sud,46.46,-64.7
Budd Mills,45.63,-77.25
Budd's Point 20D,53.98,-102.12
Buena Vista,51.44,-105.8
Buffalo Creek,51.73,-121.15
Buffalo Gap,49.11,-105.26
Buffalo Head Prairie,58.05,-116.34
Buffalo Heights,42.89,-78.99
Buffalo Lake,55.37,-119.02
Buffalo Lake Metis Settlement,54.48,-112.43
Buffalo Point,49.01,-95.23
Buffalo Point 36,49.01,-95.26
Buffalo Point First Nation 1,49,-95.38
Buffalo Point First Nation 2,49.07,-95.3
Buffalo Point First Nation 3,49,-95.35
Buffalo Rock,47.01,-79.36
Buffalo-Ankerite,48.43,-81.26
Buford,53.24,-113.93
Bugeaud,48.05,-65.23
Bulgers Corners,45.59,-77.02
Bulkley 1,55.2,-127.4
Bulkley River 19,55.03,-127.31
Bull Lake,46.1,-67.38
Bull Moose Hill,45.72,-65.77
Buller,44.79,-78.75
Buller Siding,44.44,-77.37
Bullock,45.1,-76.47
Bullocks Corners,43.27,-79.98
Bulls Cove,47.05,-55.16
Bulls Creek,46.09,-67.55
Bulwer,45.34,-71.69
Bulyea,50.98,-104.86
Bummers Flat 6,49.65,-115.68
Bunessan,44.19,-80.71
Bunker Hill,45.04,-75.02
Bunyan,42.93,-82.27
Bur Creek,44.29,-76.56
Burchell Lake,48.6,-90.59
Burchills Flats,45.37,-65.57
Burdick Range,50.4,-105.38
Burditt Lake,48.92,-93.8
Burgerville,46.17,-75.84
Burgess Mines,45.26,-77.7
Burgess Settlement,47.08,-67.56
Burgessville,43.02,-80.65
Burgis Beach,51.54,-102.62
Burgoyne,44.43,-81.31
Burin Bay,47.02,-55.17
Burin Bay Arm,47.08,-55.19
Burke Settlement,44.85,-76.73
Burketon Station,44.05,-78.79
Burkeville,49.18,-123.15
Burks Corners,45.67,-75.15
Burleigh Falls,44.56,-78.21
Burlington Beach,43.3,-79.8
Burnaby Heights,49.28,-123
Burnbrae,44.32,-77.7
Burnet,45.56,-75.85
Burnhamthorpe,43.62,-79.59
Burnley,44.15,-78
Burns,43.63,-80.84
Burns Lake 18,54.23,-125.76
Burnside,50.04,-110.73
Burnside,44.995,-63.285
Burnside,44.75,-79.51
Burnside Heights,50.05,-110.75
Burnstick Lake,51.98,-114.89
Burnstown,45.38,-76.57
Burnsville,47.7,-65.14
Burnt Church,47.19,-65.14
Burnt Cliff Islands 20,54.49,-130.46
Burnt Cove,47.19,-52.85
Burnt Creek,54.81,-66.88
Burnt Hill,45.17,-67.34
Burnt Hills,44.45,-76.3
Burnt Island,47.38,-54.7
Burnt Island,45.82,-82.94
Burnt Islands,47.61,-58.87
Burnt Point,47.95,-53.03
Burnt River,44.67,-78.69
Burnt Stump,47.39,-53.15
Burnt Village,51.16,-55.98
Burntcoat,45.31,-63.79
Burntland Brook,46.99,-67.33
Burpee,45.78,-82.57
Burpee and Mills,45.79,-82.59
Burpees Corner,45.86,-66.33
Burquitlam,49.26,-122.88
Burr,44.04,-77.38
Burr,52.05,-105.13
Burrard Inlet 3,49.3,-122.97
Burridge,44.65,-76.54
Burriss,48.67,-93.67
Burritts Rapids,44.98,-75.79
Burrows,50.31,-102.13
Burtch,43.06,-80.26
Burtons Cove,49.55,-56.86
Burwash,46.23,-80.85
Burys Green,44.61,-78.67
Bush Glen,45.04,-75.09
Bush Island,44.23,-64.37
Bushe River 207,58.48,-116.97
Bushville,47.01,-65.51
Busy Bee Corners,42.09,-83.03
Butchers,47.87,-53.37
Butler,49.79,-101.36
Butte-D'Or,47.54,-65.2
Butter Cove,48.02,-53.64
Buttermilk Falls,45.09,-78.74
Butternut Bay,44.51,-75.78
Buttonville,43.86,-79.36
Buzwah,45.75,-81.78
Byemoor,51.97,-112.28
Byers Lake,45.59,-63.41
Byersville,44.28,-78.35
Byng,42.89,-79.62
Byng Inlet,45.76,-80.55
Byrnedale,42.24,-82.66
Byron,42.95,-81.33
Cabbagetown,43.66,-79.36
Cache Bay,46.37,-79.98
Cachet,43.88,-79.34
Cacouna Indian Reserve 22,47.91,-69.5
Cacouna-Est,47.99,-69.42
Cacouna-Station,47.89,-69.45
Cacouna-Sud,47.94,-69.46
Cadboro Bay,48.46,-123.3
Caderette,46.37,-80.03
Cadman Corner,46.17,-64.02
Cadmus,44.11,-78.76
Cadogan,52.31,-110.44
Caernarvon,53.61,-113.52
Caesarea,44.15,-78.83
Cahill Point,47.56,-52.69
Cahoose 10,52.58,-125.41
Cahoose 12,52.91,-125.65
Cahoose 8,52.87,-125.68
Cahore,45.17,-75.19
Cails Mills,46.48,-65.14
Cains Island,47.6,-58.69
Cains Mountain,45.98,-60.91
Cains Point,47.34,-65.1
Cainsville,43.14,-80.19
Caintown,44.52,-75.88
Cairngorm,42.9,-81.66
Cairo,42.7,-81.89
Caissie Cape,46.33,-64.53
Caissie-Village,46.57,-64.75
Caistor Centre,43.07,-79.65
Caistorville,43.05,-79.71
Caithness,49.31,-115.16
Caithness,45.11,-66.84
Calais,55.07,-117.53
Calamity Corners,43.02,-81.28
Calderbank,50.61,-106.85
Calderwood,44.01,-80.86
Caldwell,47.06,-67.69
Caldwell,45.58,-76.41
Caledon East,43.86,-79.86
Caledonia Front,45.54,-74.72
Caledonia Mills,45.48,-61.79
Caledonia Mountain,45.85,-64.8
Caledonia Springs,45.54,-74.8
Calhoun,46.06,-64.58
Caliento,49.13,-96.41
California,44.875,-76.375
Californie,46.34,-73.23
Caliper Lake,49.06,-93.89
Calixa-Lavallée,45.75,-73.28
Callingwood North,53.5,-113.62
Callingwood South,53.5,-113.62
Call's Mills,45.18,-72.61
Callum,46.51,-80.62
Calton,42.71,-80.85
Calumet,45.65,-74.63
Calvin,46.25,-78.91
Calvin Park,44.23,-76.52
Calway,46.27,-70.81
Camborne,44.03,-78.21
Cambria,51.39,-112.59
Cambrian Heights,51.08,-114.08
Cambrian Heights,46.51,-80.99
Cambridge Forest Estates,45.35,-75.25
Camden,45.3,-63.18
Camel Chute,45.18,-77.11
Camelot Beach,42.87,-79.3
Cameron,44.38,-78.43
Cameron Bar 13,50.39,-121.67
Cameron Falls,49.15,-88.34
Cameron Heights,49.21,-124.8
Cameron Settlement,45.28,-62.49
Camerons Mill,46.67,-65.1
Camerons Point,45.07,-74.53
Camilla,43.99,-80.11
Camlachie,43.03,-82.16
Camp Bay,52.16,-55.65
Camp Bigwee,47.01,-80.11
Camp Boggy,47.98,-55.8
Camp Cayuga,47,-80.11
Camp Champlain,46.32,-79.29
Camp Chimo,46.92,-80.08
Camp des Forces canadiennes Chilcotin,52.08,-122.55
Camp des Forces canadiennes Nanaimo,49.15,-123.98
Camp des Forces canadiennes Vernon,50.24,-119.28
Camp Harmony,47.89,-66.95
Camp Kagawong,44.55,-78.82
Camp Oconto,44.69,-76.68
Camp Robinson,50.13,-93.22
Camp Wanapitei,47.16,-80.06
Camp White Bear,46.87,-80.14
Campania,43.98,-80.3
Campbell Hill,45.63,-62.9
Campbell Island,52.16,-128.14
Campbell River 11,50.03,-125.25
Campbell Settlement,45.91333333,-66.86
Campbellcroft,44.06,-78.37
Campbells Beach,44.61,-79.11
Campbells Corners,44.9,-75.56
Campbells Cross,43.78,-79.86
Campbelltown,44.21,-78.23
Campbellville,43.48,-79.98
Campden,43.13,-79.43
Camper,51.07,-98.26
Camperdown,44.26,-64.6
Camperdown,44.53,-80.4
Camperville,51.98,-100.14
Campobello Island,44.88,-66.91
Camp-Ouareau,46.25,-74.11
Camsell Lake 30,54.51,-124.85
Camsell Portage,59.61,-109.27
Cana,50.88,-102.65
Canaan,46.24,-65.06
Canaan,44.55666667,-64.87
Canaan,45.45,-75.29
Canaan Forks,46.05,-65.54
Canaan Rapids,45.93,-65.74
Canaan Road,46.03,-65.34
Canada Creek,45.16,-64.74
Canada Hill,43.8,-65.12
Canadian Forces Base Bagotville,48.32,-70.98
Canadian Forces Base Borden,44.26,-79.91
Canadian Forces Base Chilliwack,49.1,-121.96
Canadian Forces Base Cold Lake,54.4,-110.27
Canadian Forces Base Comox,49.71,-124.9
Canadian Forces Base Esquimalt,48.43,-123.42
Canadian Forces Base Gagetown,45.83,-66.45
Canadian Forces Base Goose Bay,53.3,-60.41
Canadian Forces Base Greenwood,44.98,-64.92
Canadian Forces Base Halifax,44.65,-63.58
Canadian Forces Base Kingston,44.24,-76.44
Canadian Forces Base Montréal,45.5,-73.42
Canadian Forces Base Moose Jaw,50.34,-105.55
Canadian Forces Base North Bay,46.35,-79.41
Canadian Forces Base Petawawa,45.91,-77.29
Canadian Forces Base Shilo,49.8,-99.63
Canadian Forces Base Suffield,50.27,-111.17
Canadian Forces Base Trenton,44.11,-77.54
Canadian Forces Base/Area Support Unit Valcartier,46.96,-71.55
Canadian Forces Camp Chilcotin,52.08,-122.55
Canadian Forces Camp Nanaimo,49.15,-123.98
Canadian Forces Camp Vernon,50.24,-119.28
Canadian Forces Station Aldergrove,49.07,-122.48
Canadian Forces Station Flin Flon,54.72,-101.97
Canadian Forces Station Holberg,50.66,-128.07
Canadian Forces Station Leitrim,45.33,-75.58
Canadian Forces Station Masset,54.02,-132.1
Canadian Forces Station St. John's,47.58,-52.67
Canadian Heights,46.11,-64.83
Canal,45.15,-66.82
Canal,45.33,-79.13
Canard,45.13,-64.43
Canborough,42.99,-79.67
Candiac,45.38,-73.51
Candiac,50.21,-103.25
Candyville,42.69,-80.98
Cane,47.62,-80.06
Canfield,42.97,-79.75
Canim Lake,51.76,-120.9
Canim Lake 1,51.78,-121
Canim Lake 2,51.74,-121.12
Canim Lake 3,51.77,-121.21
Canim Lake 4,51.79,-121.47
Canim Lake 5,51.88,-120.63
Canim Lake 6,51.9,-120.61
Cankerville,44.06,-77.76
Cann,47.9,-73.88
Cannamore,45.19,-75.24
Cannes-de-Roches,48.54,-64.29
Cannifton,44.2,-77.39
Cannington Lake,49.78,-102.16
Canobie,47.68,-65.36
Canobie South,47.67,-65.33
Canoe,50.75,-119.23
Canoe Creek 1,51.46,-122.15
Canoe Creek 2,51.43,-122.05
Canoe Creek 3,51.53,-122.25
Canoe Lake,45.57,-78.72
Canoe Lake 165,55.12,-108.19
Canoe Lake 165A,55.15,-108.39
Canoe Lake 165B,55.18,-108.11
Canonto,45.06,-76.77
Canoona 2,53.07,-128.58
Canoose,45.37,-67.35
Canopus,49.2,-106.2
Cantal,49.43,-101.93
Cantin Lake,53.42,-95.15
Cantley,45.56,-75.78
Canton-Arnaud,50.24,-66.5
Canton-Jetté,48.26,-67.56
Canton-Pelletier,49.01,-72.3
Canton-Tremblay,48.48,-71.1
Cantuar,50.38,-108
Canuck,49.2,-108.21
Canupawakpa Dakota First Nation,49.62,-100.93
Canyon,49.08,-116.45
Canyon Alpine,49.91,-121.44
Canyon Creek,55.37,-115.09
Canyon Heights,49.35,-123.1
Canyon Lake (Ormonde Lake) 7,54.18,-124.69
Canyon Meadows,50.95,-114.08
Cap La Ronde,45.57,-60.91
Cap Le Moine,46.49,-61.07
Cap-à-la-Baleine,48.91,-67.25
Cap-à-la-Branche,47.38,-70.43
Cap-à-l'Aigle,47.66,-70.1
Cap-à-l'Orignal,48.35,-68.8
Cap-au-Renard,49.19,-66.24
Cap-aux-Corbeaux,47.43,-70.46
Cap-aux-Oies,47.49,-70.24
Cap-aux-Os,48.83,-64.34
Cap-Bateau,47.81,-64.53
Cap-Bon-Ami,48.81,-64.22
Cap-Brûlé,46.23,-64.48
Cap-Chat-Est,49.1,-66.66
Cap-de-Cocagne,46.35,-64.55
Cap-de-Saint-Louis,46.75,-64.91
Cap-des-Caissie,46.33,-64.53
Cap-d'Espoir,48.42,-64.32
Cap-des-Rosiers,48.86,-64.21
Cap-des-Rosiers-Est,48.84,-64.21
Cape Auguet,45.48,-61.02
Cape Chin,45.06,-81.31
Cape Cove,48.43,-64.33
Cape Croker Hunting Ground 60B,45.18,-81.48
Cape Dauphin,46.32,-60.41
Cape Enrage,45.62,-64.78
Cape Forchu,43.8,-66.15
Cape Freels North,49.26,-53.5
Cape George Point,45.86,-61.9
Cape Jack,45.68,-61.56
Cape John,45.79,-63.09
Cape Mudge 10,50,-125.18
Cape Negro,43.55,-65.45
Cape North,46.88,-60.5
Cape Smokey,46.6,-60.39
Cape Spear,46.08,-63.81
Cape Spencer,45.19,-65.9
Cape St. Marys,44.08,-66.2
Cape Station,45.8,-64.6
Capelton,45.31,-71.9
Cap-Gaspé,48.75,-64.17
Capilano,53.55,-113.43
Capilano 5,49.32,-123.13
Capilano Highlands,49.35,-123.1
Capitol Hill,51.06,-114.1
Capitol Hill,49.28,-122.98
Caplan-Ouest,48.13,-65.73
Caplin Cove,48.02,-53.35
Cap-Lumière,46.65,-64.7
Cappahayden,46.86,-52.94
Cap-Pelé,46.21,-64.26
Cap-Rouge,46.75,-71.35
Cap-Saint-Ignace-Station,47.03,-70.44
Cap-Saint-Jacques,45.46,-73.91
Cap-Santé,46.66,-71.78
Caps-de-Maria,48.12,-66.04
Cap-Seize,49.01,-66.39
Caps-Saint-Fidèle,47.71,-69.99
Capstan Island,51.57,-56.73
Capstick,47,-60.5
Capucins,49.05,-66.84
Caradoc,42.91,-81.52
Carbondale,53.74,-113.52
Carcajou,57.76,-117.04
Cardale,50.23,-100.32
Cardigan,46.14,-66.78
Cardigan,46.23,-62.61
Cardinal Heights,45.44,-75.6
Cardross,49.81,-105.61
Cardwell,43.97,-80.09
Carey,49.44,-97.05
Cargill,44.19,-81.24
Cariboo,49.25,-122.88
Caribou,45.73,-62.69
Caribou Heights,50.4,-105.58
Caribou Island,45.75,-62.71
Caribou Marsh,46.04,-60.2
Caribou Marsh 29,46.05,-60.21
Caribou Mines,45.05,-62.94
Caribou River,45.75,-62.83
Carignan,46.385,-73.045
Carillon,45.56,-74.37
Carlea,53.15,-103.9
Carleton,44,-65.92
Carleton Corner,44.83,-65.28
Carleton Heights,45.35,-75.7
Carleton Square,45.36,-75.71
Carleton Square Industrial,53.57,-113.6
Carleton Village,43.66,-65.33
Carleton-Ouest,48.11,-66.17
Carley,44.6,-79.63
Carleys Corner,44.86,-75.8
Carlin,45.74,-74.52
Carling,45.415,-80.195
Carlingford,46.74,-67.75
Carlingford,43.38,-81.15
Carlington,45.37,-75.73
Carlingwood,45.37,-75.76
Carlow,46.51,-67.51
Carlow,43.77,-81.62
Carlow/Mayo,45.14,-77.62
Carlowrie,49.25,-96.96
Carlsbad Springs,45.36,-75.45
Carlsruhe,44.1,-81.04
Carlton,52.83,-106.5
Carlton Park,43.19,-79.21
Carluke,43.14,-79.98
Carlyon,44.72,-79.49
Carm Creek 38,54.61,-129.78
Carmanah 6,48.61,-124.74
Carmel,44.1,-78.205
Carmel,45.97,-72.37
Carmel,52.23,-105.35
Carmichael,50.04,-108.64
Carmunnock,43.6,-81.13
Carnarvon,45.05,-78.69
Carnegie Beach,44.19,-78.86
Carol Richard Park,46.62,-81.01
Caroline Village,44.89,-76.25
Caron,48.24,-79.08
Caron,50.45,-105.87
Caron Brook,47.28,-68.58
Carp Lake 3,54.77,-123.41
Carp South 7,54.69,-123.29
Carpenter,45.67,-66.06
Carpenter Mountain 15,52.18,-121.95
Carpin Beach,46.5,-84.45
Carr,46.01,-79.66
Carragana,52.58,-103.1
Carrick,49.24,-96.05
Carrier Lake 15,54.52,-123.88
Carroll,49.6,-100.03
Carroll,45.92,-76.98
Carroll Ridge,45.85,-67.46
Carrolls Corner,45.01,-63.38
Carrolls Cove,52.16,-55.7
Carrolls Crossing,46.52,-66.24
Carron Point,47.64,-65.6
Carrot River 29A,53.49,-102.87
Carrs,50.11,-119.46
Carrs Brook,45.39,-63.94
Carr's Landing,43.66,-80.76
Carruthers,52.86,-109.26
Carrville,43.84,-79.45
Carry The Kettle 76-18,50.59,-103.69
Carry The Kettle 76-19,50.53,-103.73
Carry The Kettle 76-20,50.43,-103.4
Carry The Kettle 76-21,50.44,-103.48
Carry The Kettle 76-22,50.46,-103.21
Carry The Kettle 76-23,50.67,-103.69
Carry The Kettle 76-24,50.5,-103.18
Carry The Kettle 76-25,50.66,-103.52
Carry The Kettle 76-35,50.54,-103.27
Carry The Kettle 76-36,50.49,-103.16
Carry The Kettle 76-37,50.88,-108.58
Carry The Kettle 76-38,50.85,-108.6
Carry The Kettle 76-40,50.32,-103.35
Carry The Kettle 76-41,50.44,-103.28
Carry The Kettle 76-42,50.45,-103.24
Carry The Kettle 76-43,50.31,-103.35
Carry The Kettle 76-48,50.4,-103.58
Carry The Kettle 76-59,50.53,-103.57
Carry The Kettle 76-67,50.29,-103.63
Carry The Kettle Nakoda 76-30,50.48,-103.09
Carry The Kettle Nakoda 76-45,50.5,-103.19
Carry The Kettle Nakoda 76-49,50.5,-103.17
Carry The Kettle Nakoda 76-5,50.48,-103.13
Carry The Kettle Nakoda 76-50,50.5,-103.16
Carry The Kettle Nakoda 76-53,50.53,-103.36
Carry The Kettle Nakoda 76-54,50.31,-103.32
Carry The Kettle Nakoda 76-55,50.33,-103.28
Carry The Kettle Nakoda 76-57,50.44,-103.5
Carry The Kettle Nakoda 76-58,50.42,-103.48
Carry The Kettle Nakoda 76-60,50.56,-103.69
Carry The Kettle Nakoda 76-63,50.56,-103.71
Carry The Kettle Nakoda 76-64,50.54,-103.59
Carry The Kettle Nakoda 76-9,50.44,-103.24
Carry The Kettle Nakoda First Nation 76-10,50.44,-103.27
Carry The Kettle Nakoda First Nation 76-11,50.44,-103.38
Carry The Kettle Nakoda First Nation 76-12,50.45,-103.22
Carry The Kettle Nakoda First Nation 76-13,50.27,-103.66
Carry The Kettle Nakoda First Nation 76-14,50.5,-103.16
Carry The Kettle Nakoda First Nation 76-15,50.4,-103.55
Carry The Kettle Nakoda First Nation 76-17,50.6,-103.68
Carry The Kettle Nakoda First Nation 76-29,50.5,-103.54
Carry The Kettle Nakoda First Nation 76-3,50.45,-103.38
Carry The Kettle Nakoda First Nation 76-31,50.66,-103.65
Carry The Kettle Nakoda First Nation 76-32,50.67,-103.69
Carry The Kettle Nakoda First Nation 76-33,50.9,-108.62
Carry The Kettle Nakoda First Nation 76-34,50.45,-103.62
Carry The Kettle Nakoda First Nation 76-4,50.44,-103.39
Carry The Kettle Nakoda First Nation 76-6,50.46,-103.18
Carry The Kettle Nakoda First Nation 76-7,49.56,-109.98
Carry The Kettle Nakoda First Nation 76-8,50.31,-103.31
Carry The Kettle Nakota First Nation 76-1,50.32,-103.27
Carry The Kettle Nakota First Nation 76-2,50.33,-103.23
Carrying Place,44.04,-77.58
Carson Grove,45.43,-75.62
Carsonby,45.17,-75.71
Carsoosat 17,54.67,-124.94
Carters Corners,48.38,-89.47
Carters Point,45.38,-66.17
Carterton,46.19,-83.95
Carthage,43.66,-80.85
Carthew Bay,44.52,-79.42
Carvel,53.53,-114.21
Carvell,46.36,-67.77
Casa Rio,52.03,-106.64
Cascade Heights,49.25,-123.01
Cascades,45.58,-75.87
Cascapédia–Saint-Jules,48.25,-65.91
Casdeded 8,55.3,-126.61
Case Settlement,45.68,-65.73
Casey,47.62,-79.56
Casey,47.88,-74.17
Casey Corner,45.02,-64.54
Cashel,43.91,-79.32
Cashions Glen,45.1,-74.68
Cashtown Corners,44.33,-80.07
Casimiel Meadows 15A,52.66,-125.46
Casimir,46.33,-80.4
Casino,49.05,-117.66
Caslan,54.63,-112.51
Cass Bridge,45.04,-75.31
Cassburn,45.58,-74.7
Cassel,43.28,-80.76
Cassidy,49.05,-123.88
Cassilis,46.94,-65.76
Cassimayooks 5,49.49,-115.56
Cassin,49.27,-122.81
Castagnier,48.73,-77.82
Castaway,46.29,-65.72
Castile,45.49,-77.32
Castle Bay,45.91,-60.67
Castle Glen Estates,44.46,-80.32
Castle Green,43.46,-79.69
Castle Heights,45.43,-75.64
Castle Island,53.7,-114.34
Castle Rock,52.53,-122.48
Castlebar,45.81,-71.98
Castledale,51.02,-116.52
Castlederg,43.91,-79.76
Castleford,45.52,-76.58
Castlemore,43.79,-79.68
Castlereagh,45.49,-63.77
Castleridge,51.1,-113.95
Castleton,44.09,-77.93
Casummit Lake,51.48,-92.35
Caswell Hill,52.14,-106.67
Caswell's Beach,44.74,-79.75
Cat Lake 63C,51.72,-91.82
Catalone,45.98,-59.98
Catalone Gut,46.01,-59.95
Catamount,46.16,-64.98
Cataract,43.82,-80.02
Cataraqui,44.25,-76.54
Catchacoma,44.74,-78.33
Cathcart,43.1,-80.52
Cathedral Bluffs,52.24,-106.52
Caulfeild,49.35,-123.25
Cavalier,53.08,-108.55
Cavan,44.2,-78.46
Cavan-Monaghan,44.21,-78.46
Cavell,52.26,-108.58
Caverlys Landing,45.07,-77.45
Cavers,48.9,-87.69
Cawood,45.82,-76.19
Cayamant,46.13,-76.25
Caycuse,48.88,-124.36
Cayer,51.3,-99.13
Cayilth 5,50.33,-127.44
Cayoosh Creek 1,50.66,-121.93
Cayuse 6,50.38,-127.46
Cazaville,45.08,-74.37
Cecebe,45.64,-79.54
Cecil Lake,56.3,-120.58
Cedar Bay,42.87,-79.17
Cedar Beach,44.08,-79.67666667
Cedar Camp,45.7,-65.33
Cedar Creek,44.1,-77.76
Cedar Dale,43.87,-78.84
Cedar Glen,44.49,-78.63
Cedar Grove,50.13,-119.45
Cedar Grove,44.42,-77.125
Cedar Harbour,44.31,-79.53
Cedar Heights,46.54,-84.31
Cedar Hill,45.27,-76.31
Cedar Lake,44.02,-66.1
Cedar Lake,44.42,-76.4
Cedar Mills,43.92,-79.8
Cedar Mount,44.39,-79.55
Cedar Nook,44.91,-79.75
Cedar Point,43.97,-81.085
Cedar Shores,44.13,-78.91
Cedar Springs,42.845,-80.975
Cedar Springs Range,42.26,-82.02
Cedar Valley,43.99666667,-79.30333333
Cedar Villa Estates,52.09,-106.77
Cedar Village,45.05,-79.38
Cedarbrae,50.96,-114.13
Cedarbrae,44.24,-79.28
Cedarbrook,45.4,-74.16
Cedardale,49.33,-123.13
Cedardale,45.21,-76.08
Cedarhurst Beach,44.4,-79.17
Cedarhurst Park,42.01,-82.78
Cedarmont Beach,44.54,-79.4
Cedarside,52.78,-119.25
Cedarvale,55.01,-128.32
Cedarvale,43.69,-79.42
Cedarville,44.01,-80.22
Cedarville,45.02,-72.21
Cedoux,49.88,-103.86
Celista,50.95,-119.35
Centennial,49.9,-97.15
Centennial,43.78,-79.15
Centennial Place,46.08,-64.81
Central,43.26,-79.87
Central Argyle,43.76,-65.84
Central Blissville,45.63,-66.57
Central Business District,52.13,-106.66
Central Cambridge,45.74,-66.02
Central Caribou,45.71,-62.72
Central Chebogue,43.78,-66.08
Central Clarence,44.9,-65.21
Central Elgin,42.78,-81.11
Central Frontenac,44.71,-76.83
Central Greenwich,45.51,-66.11
Central Grove,44.34,-66.26
Central Hainesville,46.11,-67.09
Central Huron,43.67,-81.52
Central Kings,46.32,-62.49
Central Kingsclear,45.91,-66.88
Central Manitoulin,45.68,-82.23
Central McDougall,53.55,-113.5
Central New Annan,45.63,-63.31
Central North River,45.44,-63.21
Central Norton,45.56,-65.8
Central Onslow,45.37,-63.32
Central Park,45.36,-75.73
Central Patricia,51.48,-90.16
Central Tower Hill,45.31,-67.21
Central Waterville,46.07,-67.29
Central West River,45.57,-62.84
Central Woods Harbour,43.54,-65.73
Centrale Adam-Cunningham,48.65,-71.17
Centrale aux Outardes-2,49.14,-68.39
Centrale aux Outardes-3,49.55,-68.72
Centrale aux Outardes-4,49.7,-68.9
Centrale Beaumont,47.55,-72.83
Centrale Bersimis-1,49.29,-69.55
Centrale Bersimis-2,49.17,-69.22
Centrale Bird-1,46.74,-71.71
Centrale Bird-2,46.74,-71.71
Centrale Brisay,54.45,-70.51
Centrale Daniel-Larocque,46.55,-75.49
Centrale d'Arthurville,46.82,-70.75
Centrale de Beauharnois,45.31,-73.91
Centrale de Bryson,45.66,-76.63
Centrale de Carillon,45.56,-74.38
Centrale de Chelsea,45.52,-75.77
Centrale de Chicoutimi,48.42,-71.07
Centrale de Chute-à-Caron,48.45,-71.25
Centrale de Donnacona,46.67,-71.74
Centrale de Grand-Mère,46.61,-72.67
Centrale de High Falls,45.83,-75.64
Centrale de la Chute-à-la-Savane,48.75,-71.83
Centrale de la Chute-aux-Galets,48.65,-71.2
Centrale de la Chute-Bell,45.77,-74.68
Centrale de la Chute-Burroughs,45.15,-72.01
Centrale de la Chute-des-Chats,45.47,-76.23
Centrale de la Chute-des-Passes,49.84,-71.16
Centrale de la Chute-du-Diable,48.78,-71.69
Centrale de la Chute-Garneau,48.38,-71.13
Centrale de la Chute-Hemmings,45.86,-72.45
Centrale de La Gabelle,46.44,-72.73
Centrale de la Hart-Jaune,51.78,-67.91
Centrale de la Mitis-1,48.6,-68.13
Centrale de la Mitis-2,48.62,-68.13
Centrale de la Paton,45.4,-71.89
Centrale de la Première-Chute,47.6,-79.45
Centrale de la Rivière-des-Prairies,45.58,-73.65
Centrale de la Sainte-Marguerite-3,50.7,-66.77
Centrale de la Toulnustouc,49.97,-68.15
Centrale de la Trenche,47.75,-72.88
Centrale de La Tuque,47.44,-72.79
Centrale de L'Anse-Saint-Jean,48.2,-70.28
Centrale de l'Eastmain-1,52.18,-76.05
Centrale de L'Isle-Maligne,48.57,-71.63
Centrale de Magpie,50.32,-64.45
Centrale de Masson,45.56,-75.42
Centrale de Paugan,45.81,-75.92
Centrale de Pont-Arnaud,48.41,-71.12
Centrale de Rapide-2,47.93,-78.57
Centrale de Rapide-7,47.76,-78.31
Centrale de Rapide-Blanc,47.79,-72.97
Centrale de Rawdon,46.04,-73.73
Centrale de Rivière-du-Loup,47.83,-69.53
Centrale de Saint-Alban,46.71,-72.07
Centrale de Sainte-Brigitte-des-Saults,46.02,-72.48
Centrale de Saint-Narcisse,46.55,-72.41
Centrale de Saint-Raphaël,46.79,-70.74
Centrale de Shawinigan-2,46.53,-72.76
Centrale de Shawinigan-3,46.53,-72.76
Centrale de Shipshaw,48.44,-71.21
Centrale de Tracy,45.99,-73.17
Centrale de Winneway,47.57,-78.55
Centrale des Abénaquis,45.4,-71.89
Centrale des Cascades-Savard,51.3,-68.12
Centrale des Cèdres,45.31,-74.02
Centrale des Chutes-de-la-Chaudière,46.71,-71.28
Centrale des Chutes-Ford,46.83,-71.94
Centrale des Rapides-des-Îles,47.57,-79.35
Centrale des Rapides-des-Quinze,47.59,-79.29
Centrale des Rapides-Farmer,45.49,-75.76
Centrale des Sept-Chutes,47.12,-70.81
Centrale du Corbeau,46.31,-75.94
Centrale du Lac-Robertson,50.99,-59.06
Centrale Dufferin,45.58,-75.41
Centrale Fraser,47.83,-69.53
Centrale Frontenac,45.4,-71.89
Centrale Jean-Lesage,49.32,-68.34
Centrale Jim-Gray,48.69,-71.21
Centrale La Grande-1,53.73,-78.57
Centrale La Grande-2-A,53.77,-77.54
Centrale La Grande-3,53.72,-75.99
Centrale La Grande-4,53.88,-73.46
Centrale Laforge-1,54.17,-72.61
Centrale Laforge-2,54.59,-71.27
Centrale Lebreux,48.15,-65.34
Centrale Manic-1,49.19,-68.32
Centrale Manic-5,50.63,-68.72
Centrale Manic-5-PA,50.64,-68.73
Centrale McCormick,49.19,-68.32
Centrale McDougall,46.74,-71.69
Centrale Murdock-Wilson,48.46,-71.23
Centrale Penman,45.14,-71.8
Centrale René-Lévesque,49.74,-68.59
Centrale Robert-Bourassa,53.78,-77.53
Centrale T.-D.-Bouchard,45.62,-72.95
Centrale Waltham,45.91,-76.92
Centre,44.37,-64.35
Centre,44.08,-77.42
Centre Burlington,45.06,-64.1
Centre Dummer,44.47,-78.02
Centre East Pubnico,43.62,-65.76
Centre Glassville,46.54,-67.41
Centre Hastings,44.42,-77.45
Centre Inn,43.63,-80.19
Centre Lake Junction,45.92,-77.5
Centre Napan,47.01,-65.39
Centre Rawdon,45.04,-63.83
Centre Village,46.04,-64.28
Centre Wellington,43.73,-80.38
Centre-Acadie,46.71,-65.3
Centredale,45.41,-62.64
Centrefield,45.52,-75.03
Centrelea,44.81,-65.32
Centrepointe,45.33,-75.76
Centre-Saint-Simon,47.73,-64.84
Centreton,45.43,-66.08
Centreton,44.08,-78.04
Centretown,45.41,-75.69
Centreview,45.36,-77.74
Centre-ville,45.41,-75.69
Centurion,45.4,-79.31
Cessford,51,-111.55
Chaffeys Locks,44.58,-76.31
Chalifoux,46.22,-75.93
Challetkohum 5,50.06,-122.54
Challetkohum 9,50.06,-122.53
Chamberlain Settlement,47.57,-65.62
Chambers Corners,42.94,-79.37
Chambers Settlement,45.67,-65.3
Chambord-Jonction,48.42,-72.05
Chambres Corner,45.89,-65.8
Chamcook,45.12,-67.07
Chamcook Lake,45.13,-67.06
Champ de manoeuvre Albert Head Battery Point,48.38,-123.48
Champ de manoeuvre Banff,51.21,-115.53
Champ de manoeuvre Fanshawe Dam,43.03,-81.16
Champ de manoeuvre Geraldton,49.75,-86.95
Champ de manoeuvre Jarvis Lake,53.45,-117.81
Champ de manoeuvre Kakabeka Falls,48.4,-89.61
Champ de manoeuvre Korah,46.55,-84.38
Champ de manoeuvre Mary Hill,48.34,-123.54
Champ de manoeuvre Mill Hill,45.76,-65.3
Champ de manoeuvre Oshawa,43.85,-78.88
Champ de manoeuvre régional Wainwright,52.74,-110.88
Champ de manoeuvre Richmond,45.19,-75.74
Champ de manoeuvre Rocky Point,48.32,-123.56
Champ de manoeuvre Sudbury,46.39,-80.92
Champ de manoeuvre Suffield,50.45,-110.83
Champ de manoeuvre Sussex,45.72,-65.49
Champ de tir aérien Chezzetcook,44.68,-63.24
Champ de tir Alexandra Point,46.19,-63.05
Champ de tir Amherst,45.82,-64.17
Champ de tir Anse de Saanich,48.63,-123.49
Champ de tir Bedford,44.74,-63.66
Champ de tir Burdick,50.4,-105.38
Champ de tir Cedar Springs,42.26,-82.02
Champ de tir Connaught,45.36,-75.9
Champ de tir Debert,45.44,-63.47
Champ de tir Détroit de Haro,48.56,-123.35
Champ de tir et champ de manoeuvre Aldershot,45.09,-64.53
Champ de tir et champ de manoeuvre Barriefield,44.24,-76.46
Champ de tir et champ de manoeuvre Borden,44.27,-79.95
Champ de tir et champ de manoeuvre Gagetown,45.63,-66.31
Champ de tir et champ de manoeuvre Gloucester Junction,47.55,-65.65
Champ de tir et champ de manoeuvre Granville Ferry,44.75,-65.53
Champ de tir et champ de manoeuvre Ipperwash,43.19,-81.92
Champ de tir et champ de manoeuvre Meaford,44.68,-80.68
Champ de tir et champ de manoeuvre Mont Saint Bruno,45.56,-73.3
Champ de tir et champ de manoeuvre Niagara-on-the-Lake,43.25,-79.09
Champ de tir et champ de manoeuvre Petawawa,45.93,-77.44
Champ de tir et champ de manoeuvre Shilo,49.73,-99.47
Champ de tir et champ de manoeuvre Vernon,50.23,-119.28
Champ de tir Heals,48.54,-123.45
Champ de tir Île de Bentinck,48.31,-123.54
Champ de tir Lethbridge,49.71,-112.85
Champ de tir Moncton,46.06,-64.93
Champ de tir Mount McKay,48.34,-89.29
Champ de tir Nanaimo,49.14,-123.99
Champ de tir Nicolet,46.19,-72.68
Champ de tir Osborne Head,44.61,-63.42
Champ de tir Prince Albert,53.23,-105.76
Champ de tir Saint Charles,49.91,-97.33
Champ de tir Salmon Arm,50.67,-119.25
Champ de tir Sydney,46.13,-60.14
Champ de tir Winona,43.21,-79.61
Champcoeur,48.67,-77.63
Champdoré,46.39,-64.78
Champigny,46.78,-71.35
Champlain Park,45.82,-77.58
Champneuf,48.58,-77.5
Champney's,48.39,-53.28
Champney's West,48.38,-53.3
Chance Harbour,45.12,-66.35
Chance Harbour,45.67,-62.6
Chancellor,51.08,-112.83
Chandler-Ouest,48.34,-64.71
Chandos Lake,44.79,-78.04
Change Islands,49.66,-54.4
Channel Island Sapotaweyak,53,-100.41
Channel Islands 33,54.52,-130.81
Channing,54.75,-101.83
Chanoodandidalch 14,55.05,-126.45
Chantelle,46.11,-73.89
Chantler,43,-79.32
Chantry,44.67,-76.1
Chaparral,50.88,-114.03
Chapel Grove,45.38,-66.08
Chapel Island 5,45.69,-60.76
Chapel Park 28,54.22,-125.74
Chapel's Corner,45.14,-72.8
Chapleau 61,47.83,-83.38
Chapleau 61A,47.84,-83.38
Chapleau 74,47.82,-83.38
Chapleau 74A,47.8,-83.38
Chapleau 75,47.85,-83.37
Chapleau Cree Fox Lake,47.81,-83.44
Chaplin Island Road,47.06,-65.68
Chapman,44.43,-77.3
Chapman Camp,49.66,-115.96
Chapman Corner,46.21,-64.56
Chapman Settlement,45.94,-63.93
Chapman's Bar 10,49.72,-121.42
Chapmans Corner,46.13,-64.08
Chapman's Landing,46.1,-79.53
Chapperon Creek 6,50.2,-120.05
Chapperon Lake 5,50.21,-120.06
Chapple,48.74,-93.99
Chaput Hughes,48.14,-80.06
Charella Garden,53.88,-122.76
Charette,46.45,-72.93
Charing Cross,42.33,-82.09
Charlemagne,45.71,-73.48
Charlemont,42.64,-82.28
Charles,55.53,-101.01
Charles Creek 2,50.93,-126.35
Charles Lake 225,59.89,-110.58
Charlesbourg,46.85,-71.26
Charleston,46.37,-67.64
Charleston,48.39,-53.65
Charleston,44.17,-64.65
Charleston,44.57,-75.99
Charlesville,43.58,-65.77
Charleswood,49.85,-97.28
Charleville,44.75,-75.61
Charley Boy's Meadow 3,52.3,-124.21
Charlos Cove,45.24,-61.33
Charlton and Dack,47.79,-79.95
Charnwood,43.45,-79.66
Charny,46.71,-71.26
Charteris,45.68,-76.43
Charters Settlement,45.84,-66.74
Chartersville,46.08,-64.73
Chartierville,45.3,-71.2
Chartrand Corner,46.13,-80.37
Chase Corners,44.47,-77.81
Chase River,49.13,-123.91
Chaswood,45.04,-63.21
Chataway Lake/Knife Lake,54.53,-94.28
Chatboro,45.62,-74.47
Chateau,51.97,-55.89
Château-Bigot,46.89,-71.26
Château-d'Eau,46.86,-71.36
Châteauguay-Centre,45.35,-73.75
Chater,49.86,-99.83
Chatfield,50.78,-97.57
Chatham Head,46.99,-65.54
Chatham Islands 4,48.43,-123.25
Chats Haven,45.43,-76.34
Chatscah 2,52.89,-127.08
Chatterton,44.24,-77.47
Chaumox 11,49.93,-121.48
Chawathil 4,49.37,-121.54
Chazel,48.86,-79.05
Cheadle,51.01,-113.54
Cheakamus,49.83,-123.15
Cheakamus 11,49.8,-123.18
Cheam 1,49.2,-121.76
Cheapside,42.83,-79.98
Chebogue Point,43.76,-66.11
Cheddar,44.98,-78.13
Chedoke Park,43.24,-79.91
Cheeseborough,44.36,-76.17
Cheesish 15,49.67,-126.46
Cheetsum's Farm 1,50.68,-121.31
Cheewat 4A,48.66,-124.81
Chehalis 5,49.3,-121.9
Chehalis 6,49.28,-121.88
Chekwelp 26,49.41,-123.49
Chekwelp 26A,49.41,-123.49
Chelan,52.61,-103.39
Chelsea,44.37,-64.74
Chelsea,45.5,-75.78
Chelsea Green,42.96,-81.21
Cheltenham,43.75,-79.92
Chemainus 13,49,-123.78
Chemawawin 1,53.31,-100.38
Chemawawin 2,53.1,-99.79
Chemawawin 3,52.95,-99.72
Chemical Road,45.78,-64.67
Chemin-des-Pins,45.57,-75.87
Chemin-du-Lac,47.74,-69.54
Cheminis,48.16,-79.52
Chemin-Neuf,46.43,-70.6
Chenahkint 12,49.87,-126.97
Chenail-du-Moine,46.07,-72.98
Chenatha,48.94,-125.44
Chenaux,45.57,-76.71
Chénéville,45.88,-75.05
Cheney,45.41,-75.24
Chénier,46.1,-76.12
Chepi Lake,54.63,-92.43
Cherbourg,48.9,-66.99
Cherbourg-Centre,48.91,-67.06
Cherbourg-Ouest,48.84,-67.15
Cherry Brook,44.7,-63.47
Cherry Burton,45.9,-64.47
Cherry Creek,49.995,-122.7
Cherry Grove,54.35,-110.07
Cherry Grove,43.18,-81.18
Cherry Heights,43.21,-79.74
Cherry Hill,45.79,-66.03
Cherry Hill,44.15,-64.49
Cherry Lane Estates,42.03,-82.59
Cherry River,45.31,-72.16
Cherryfield,46.13,-64.8
Cherryfield,44.62,-64.81
Cherryfield Road,44.66,-64.8
Cherryvale,46.05,-65.48
Cherrywood,43.85,-79.14
Cherrywood Acres,43.1,-79.1
Chertsey,46.16,-73.91
Ches-la-kee 3,50.56,-126.98
Cheslatta 1,54,-125.7
Chester Basin,44.56,-64.3
Chester Grant,44.61,-64.32
Chester Islands,44.52,-64.24
Chesterfield,43.29,-80.66
Chestnut Hills,43.65,-79.52
Chetarpe 17,49.24,-126
Chéticamp,46.62,-61.01
Chéticamp Island,46.62,-61.03
Cheverie,45.15,-64.17
Chevery,50.46,-59.61
Chezacut,52.4,-124.03
Chezacut Cemetery 5,52.34,-124.04
Cheztainya Lake 11,55.6,-126.09
Chezzetcook Air Weapons Range,44.68,-63.24
Chiasson,47.73,-64.62
Chichester,45.91,-77.11
Chicken 224,59.18,-105.63
Chicken 225,59.28,-105.75
Chicken 226,59.22,-104.9
Chicot,45.59,-73.93
Chicoutimi-Centre,48.42,-71.06
Chicoutimi-Est,48.42,-71.02
Chicoutimi-Nord,48.44,-71.06
Chicoutimi-Ouest,48.42,-71.09
Chief Joseph Custer,53.19,-105.77
Chief Morris 13,53.07,-124.34
Chief Philip Morin 232,53.19,-105.73
Chief's Point 28,44.68,-81.28
Chig-in-kaht 8,54.85,-128.35
Chignecto,45.73,-64.21
Chikopi,45.65,-79.71
Chilanko Forks,52.11,-124.06
Chilco Lake 1,51.41,-124.11
Chilco Lake 1A,51.41,-124.1
Chilcotin Forest,52.11,-122.56
Chilcotin Training Area,52.08,-122.55
Child Lake 164A,58.47,-116.58
Childs Mines,45.07,-77.61
Chilhil 6,50.63,-121.8
Chimdimash 2,54.66,-128.35
Chimdimash 2A,54.68,-128.35
Chimney Creek 5,52.06,-122.27
Chimney Tickle,52.16,-55.69
Chimo Resort,50.02,-100.18
Chin,49.76,-112.44
Chinatown,51.05,-114.06
Chineside,49.26,-122.83
Chinook,51.44,-110.92
Chinook Park,50.98,-114.08
Chipewyan 201,58.54,-110.92
Chipewyan 201A,58.64,-110.6
Chipewyan 201B,58.59,-110.77
Chipewyan 201C,58.42,-110.91
Chipewyan 201D,58.41,-110.91
Chipewyan 201E,58.39,-110.97
Chipewyan 201F,58.02,-111.33
Chipewyan 201G,57.9,-111.39
Chipman Brook,45.16,-64.68
Chipmans Corner,45.1,-64.47
Chippawa,43.05,-79.04
Chippewa,44.49,-76.82
Chippewa Island,45.08,-80.04
Chippewa of the Thames,42.81,-81.47
Chippewas of Georgina Island First Nation,44.38,-79.28
Chippewas of Georgina Island First Nation 33A,44.32,-79.28
Chiselhurst,43.43,-81.43
Chiseuquis 9,49.83,-127.03
Chisholm,54.9,-114.16
Chisholm,46.1,-79.2
Chiswick,46.11,-79.18
Chitek,53.8,-107.75
Chitek Lake 191,53.71,-107.75
Chockpish,46.57,-64.73
Chocolate Cove,44.94,-66.98
Choisy,45.48,-74.21
Chomedey,45.53,-73.75
Chopaka 7 & 8,49.04,-119.71
Chorney Beach,51.8,-103.55
Christian Island 30,44.84,-80.18
Christian Island 30A,44.8,-80.11
Christie Lake,44.82,-76.41
Christie Park,51.03,-114.17
Christie Ridge,45.63,-67.15
Christies Corner,43.26,-80.03
Christina,42.86,-81.48
Christmas Island,45.97,-60.74
Christopher,47.93,-66.8
Chuchakacook 4,49.08,-124.84
Chuchhriaschin 5,50.46,-121.33
Chuchhriaschin 5A,50.44,-121.34
Chuchummisapo 15,48.87,-124.61
Chuchuwayha 2,49.37,-120.1
Chuchuwayha 2C,49.31,-120.13
Chuckchuk 8,49.97,-123.3
Chukcheetso 7,50,-121.52
Chum Creek 2,50.86,-119.58
Chundoo Lh'tan La 45,54.57,-124.56
Church Hill,45.74,-65.11
Church Point,44.33,-66.11
Church Point Station,44.3,-66.08
Churchill 1,58.71,-98.48
Churchill Downs,50.47,-104.6
Churchill Lake 193A,56.14,-108.2
Churchill Park,50.38,-105.53
Churchland Road,45.34,-65.93
Churchover,43.71,-65.35
Churchview,45.98,-61.14
Churchville,45.51,-62.63
Churchville,43.095,-80.68
Chute-à-Blondeau,45.58,-74.47
Chute-aux-Galets,48.65,-71.19
Chute-des-Passes,49.83,-71.16
Chute-Panet,46.86,-71.86
Chute-Rouge,46.58,-76.04
Chute-Saint-Philippe,46.65,-75.23
Chutes-de-Sainte-Ursule,46.31,-73.09
Chute-Victoria,46.64,-75.27
Chuz Ghun 8,54.64,-124.38
Chuz Teeslee 41,54.77,-124.61
Cinnabar Valley,49.1,-123.91
Cinnamon Hills,51.16,-114.08
Ciquart,47.5,-68.3
Citadel,51.15,-114.18
Cité-de-la-Mode,45.53,-73.65
Cité-des-Jeunes,45.39,-74.02
Cité-du-Havre,45.5,-73.55
Citeyats 9,53.24,-129.5
City Centre,49.88,-97.16
City Park North,52.14,-106.65
City Park South,52.13,-106.65
City View,45.35,-75.74
City View,50.435,-105.085
Clachan,42.58,-81.8
Clairlea,43.71,-79.29
Clairvaux-de-Bagot,45.72,-72.85
Clairville,46.38,-65.1
Clam Bay,44.73,-62.92
Clam Harbour,44.73,-62.87
Clam Point,43.49,-65.57
Clanbrassil,42.96,-79.95
Clandeboye,50.24,-96.97
Clandeboye,43.19,-81.45
Clandonald,53.57,-110.71
Clanwilliam,50.36,-99.81
Claoose 4,48.66,-124.82
Clapham,46.15,-71.49
Clapperton,48.15,-66.01
Clappison's Corners,43.31,-79.91
Claraday,44.28,-78.31
Clardon Beach,44.23,-79.46
Clare,43.99,-80.63
Clarence,44.89,-65.24
Clarence,45.56,-75.24
Clarence East,44.92,-65.17
Clarence Ridge,45.32,-67
Clarence West,44.86,-65.28
Clarendon,45.48,-66.41
Clarendon,45.65,-76.51
Clarendon Front,45.54,-76.56
Clarendon Station,44.87,-76.69
Clarenville South,48.15,-53.97
Clarina,44.55,-78.06
Clarkdon,49.77,-91.24
Clarke,43.96,-78.54
Clarke City,50.19,-66.63
Clarkes Hollow,43.87,-79.13
Clarks Church,44.11,-81.57
Clarks Corners,45.94,-66.13
Clarks Corners,43.79,-79.3
Clark's Harbour,43.44,-65.62
Clarksburg,44.54,-80.46
Clarksdale,43.35,-79.81
Clarkson,43.51,-79.63
Clarksville,45.1,-63.83
Clarkville,46.12,-67.37
Classy Creek 8,58.18,-130.8
Clatse 5,52.32,-127.83
Clatux 9,50.5,-127.83
Claude,43.79,-79.9
Clavering,44.68,-81.13
Clavet,51.99,-106.37
Clay Bank,45.38,-76.41
Clay Valley,45.42,-76.44
Claybank,50.04,-105.23
Clayburn,49.08,-122.26
Clayhurst,56.18,-120.05
Clayoqua 6,49.18,-125.53
Clayton,45.19,-76.32
Clayton Park,44.66,-63.64
Clear Creek,42.58,-80.59
Clear Hills 152C,56.53,-118.79
Clear Lake,45.25,-79.135
Clearbrook,49.05,-122.33
Cleardale,42.94,-81.25
Clearland,44.48,-64.4
Clearview,46.57,-67.72
Clearview,44.40333333,-78.47666667
Clearview Estates,43.22,-79.99
Clearview Heights,43.92,-79.52
Clearville,42.46,-81.71
Clearwater 175,56.65,-111.02
Clearwater Bay,49.71,-94.8
Clearwater Beach,44.85,-79.91
Clearwater Lake,53.97,-100.97
Clearwater River,56.525,-109.465
Clearwater River Dene Band 221,56.34,-109.54
Clearwater River Dene Band 223,56.05,-108.71
Cleho 6,48.92,-125.24
Clemenceau,52.66,-102.52
Clément,46.11,-75.93
Clements Park,44.96,-64.94
Clementsport,44.66,-65.6
Clementsvale,44.62,-65.55
Clemville,48.18,-65.01
Cléricy,48.36,-78.86
Clerval,48.75,-79.43
Clesbaoneecheck 3,53.96,-122.94
Cleveland,45.66,-61.23
Cleveland,45.66,-72.08
Cleveland Park,49.36,-123.1
Clienna 14,50.54,-127.99
Cliff Bungalow,51.03,-114.07
Cliffcrest,43.72,-79.22
Cliffside,43.7,-79.25
Clifton,47.72,-65.39
Clifton,45.33,-63.44
Clifton,43.12,-79.09
Clifton Royal,45.44,-66
Clifton-Partie-Est,45.25,-71.55
Cline River,52.18,-116.47
Clinton 1,51.09,-121.59
Cloan,52.61,-108.76
Clontarf,45.41,-77.13
Cloolthpich 12,49.2,-125.92
Cloridorme-Ouest,49.18,-64.85
Clotalairquot 4,55.35,-126.63
Cloud Bay,48.13,-89.42
Cloudslee,46.32,-83.7
Clouston,53.1,-105.85
Cloutier,48,-79.15
Clova,48.1,-75.36
Clover Bar,53.56,-113.35
Clover Hill,45.57,-65.58
Clover Valley,44.01,-81.59
Cloverdale,53.53,-113.47
Cloverdale,49.1,-122.72
Cloverdale,46.29,-67.35
Cloverdale,45.17,-63.22
Cloverdale,45.11,-75.4
Cloverleaf,49.98,-96.56
Cloverville,45.68,-62.01
Clowel 13,53.44,-129.81
Cluchuta Lake 10A,52.98,-125.07
Cluchuta Lake 10B,52.98,-125.07
Cludolicum 9,51.86,-122.03
Cludolicum 9A,51.86,-122.01
Cluny,50.84,-112.86
Clustalach 5,53.93,-124.25
Clute,49.18,-81.07
Clyde Forks,45.13,-76.67
Clydesdale,45.64,-62.05
Clydesville,45.03,-76.39
Coach Hill,51.05,-114.16
Coachman's Cove,50.06,-56.12
Coal Branch,46.35,-65.14
Coal Brook,47.93,-58.99
Coal Creek,46.09,-65.88
Coalburn,45.56,-62.59
Coalfields,49.1,-102.73
Coalmont,49.51,-120.7
Coalpit Bay,46.77,-78.98
Coates Mills,46.37,-64.87
Coaticook-Nord,45.14,-71.8
Coatsworth,42.16,-82.35
Coburg,46.02,-64.11
Coburn,45.67,-67.05
Cocagne Cove,46.33,-64.55
Cocagne-Nord,46.33,-64.66
Cocagne-Sud,46.32,-64.62
Cochenour,51.07,-93.8
Cockburn Island,45.92,-83.37
Cockmi 3,51.5,-127.68
Coddles Harbour,45.16,-61.54
Codes Corner,44.29,-76.42
Codiac Heights,46.06,-64.85
Codrington,44.16,-77.8
Codys,45.87,-65.82
Coffee Cove,49.58,-55.95
Coffin Island 3,50.57,-126.5
Coffinscroft,43.54,-65.55
Coglistiko River 29,52.98,-123.84
Cogmagun,45.09,-64.05
Cognashene,44.92,-79.92
Cohoe Point 20,54.23,-132.97
Coin-chez-Leblanc,45.87,-77.17
Coin-de-la-Petite-Mine,45.83,-71.85
Coin-Douglass,45.19,-73.44
Coin-du-Banc,48.55,-64.29
Coin-du-Quatre,48.63,-78.98
Coin-Lavigne,46.38,-73.89
Coin-Rond,45.63,-73.21
Coins Gratton,45.61,-74.92
Coin-Saint-Philippe,45.94,-71.78
Colbeck,43.99,-80.36
Colby Village,44.66,-63.48
Cold Brook,48.6,-58.53
Cold Lake 149,54.28,-110.28
Cold Lake 149A,54.45,-110.15
Cold Lake 149B,54.51,-110.25
Cold Lake 149c,54.72,-110.03
Cold Springs,44.06,-78.2
Coldbrook,45.06,-64.58
Coldsprings,44.28,-78.3
Coldwater 1,50.03,-120.83
Coldwell,48.76,-86.52
Cole Bay 3,48.61,-123.45
Cole Harbour,44.965,-62.375
Cole Harbour 30,44.65,-63.48
Cole Lake,44.58,-76.67
Colebrook,44.38,-76.77
Colebrooke Settlement,47.93,-66.72
Colebrooke West,47.03,-67.77
Colemans,43.23,-79.12
Coleman's Shore,45.05,-76.16
Colesdale Park,50.95,-105.15
Colfax,49.95,-103.98
Colgan,44.02,-79.84
Colgate,49.39,-103.89
Colindale,46.06,-61.49
Colinville,42.86,-82.34
College Bridge,45.97,-64.54
College Grant,45.53,-62.57
College Heights,52.48,-113.73
College Heights,53.86,-122.76
College Lake,45.23,-62.8
College Park,52.12,-106.59
College Park East,52.11,-106.57
Collette-Village,46.5,-64.72
Colliers,47.45,-53.24
Collin Lake 223,59.58,-110.17
Collina,45.77,-65.67
Collingwood Corner,45.6,-63.93
Collingwood Lakeshore Estates,51.08,-105.21
Collins,50.29,-89.44
Collins Cove,47.03,-55.17
Collins Inlet,46,-81.19
Collison Heights,44.27,-78.31
Colombière,48.09,-77.57
Colombourg,48.74,-79.14
Colombourg-Station,48.77,-79.13
Colonie-Cinq,48.38,-78.87
Colonie-de-Sainte-Julienne,48.9,-64.61
Colonie-Fournière,48.08,-78.15
Colpitts Settlement,45.98,-64.97
Colpoy's Bay,44.78,-81.12
Colpton,44.45,-64.84
Colquhoun,45.01,-75.13
Colquitz,48.48,-123.41
Columbia Gardens,49.06,-117.58
Columbia Lake 3,50.41,-115.91
Columbus,43.98,-78.91
Colwell,44.34,-79.78
Colwood,48.42,-123.49
Comeau,51.02,-98.97
Comeau Point,46.16,-64.15
Comeau Ridge,47.14,-67.69
Comeaus Hill,43.69,-66.01
Comeauville,44.28,-66.12
Comestock Corners,45.04,-72.13
Comet,42.01,-82.98
Comfort Bight,53.15,-55.77
Comfort Cove-Newstead,49.35,-54.87
Comins Mills,45.01,-71.5
Commanda,45.95,-79.6
Commodore Heights,52.16,-122.13
Commodore Park,44.68,-63.53
Communauté Atikamekw de Manawan,47.21,-74.38
Community Beach,43.23,-79.73
Como,45.44,-74.1
Comox 1,49.67,-124.95
Compeer,51.85,-110.01
Compton Island 6,50.59,-126.68
Conception Harbour,47.43,-53.22
Concession,44.28,-66.07
Concession-de-Baker-Brook,47.34,-68.55
Concession-des-Bouchard,47.26,-68.69
Concession-des-Jaunes,47.23,-68.8
Concession-des-Lang,47.28,-68.63
Concession-des-Ouellette,47.32,-68.59
Concession-des-Viel,47.25,-68.75
Concord,45.45,-62.79
Concord,43.8,-79.46
Concord Point,44.53,-79.21
Condor,52.32,-114.55
Confederation Heights,45.37,-75.68
Confederation Park,52.14,-106.73
Coningsby,43.74,-80.12
Coniston,46.49,-80.84
Conmee,48.48,-89.66
Connaught,50.53,-112.365
Connaught,46.46,-77.71333333
Connaught Heights,49.2,-122.95
Connaught Hill,48.47,-81.2
Connaught Range,45.36,-75.9
Connaught Shore,44.44,-78.37
Conne River,47.86,-55.75
Connell,46.4,-67.61
Connellys,44.35,-77.82
Connor,43.98,-79.92
Connors,47.21,-68.82
Conns Mills,45.76,-63.7
Conover,44.19,-80.21
Conquerall Bank,44.36,-64.46
Conquerall Mills,44.3,-64.52
Conrod Settlement,44.76,-63.24
Conroy,43.29,-81.04
Constance,49.2,-105.81
Constance Lake (Achikamii/Achikamaw),49.8,-84.13
Constance Lake 92,49.81,-84.12
Constant Creek,45.41,-77.01
Convent Glen,45.46,-75.53
Convoy Place,44.66,-63.61
Conway,44.6,-65.77
Conway,44.11,-76.91
Cooke's Shore,45.04,-76.21
Cooking Lake,53.41,-113.12
Cooks Brook,46.13,-64.69
Cooks Brook,45.02,-63.29
Cooks Cove,45.36,-61.48
Cooks Mills,44.695,-79.315
Cookshire-Eaton,45.41,-71.63
Cooksville,43.58,-79.61
Cookville,46.04,-64.33
Cookville,44.43,-64.55
Coombe,49.32,-122.91
Coombes Road,47.19,-67.76
Coombs,49.3,-124.41
Cooper,44.64,-77.47
Coopers Falls,44.78,-79.23
Coopte 9,49.69,-126.59
Cootes Paradise,43.26,-79.94
Cootes Pond,46.95,-53.52
Copeland Park,45.36,-75.74
Copenhagen,42.67,-80.98
Copetown,43.24,-80.05
Copp,45.46,-77.45
Coppell,49.53,-83.82
Copper Cliff,46.47,-81.06
Copper Johnny Meadow 8,51.37,-121.74
Copper Lake,45.4,-61.98
Copperhead,45.15,-80.13
Coppin's Corners,44.04,-79.14
Coquitlam 1,49.23,-122.8
Coquitlam 2,49.24,-122.79
Coral,50.21,-81.67
Coral Springs,51.1,-113.93
Corbeil,46.26,-79.29
Corberrie,44.23,-65.92
Corbett,43.24,-81.69
Corbetton,44.13,-80.32
Corbin,46.96,-55.24
Corbyville,44.21,-77.38
Cordova,50.13,-99.71
Cordova Bay,48.51,-123.36
Cordova Mines,44.54,-77.78
Corinne,50.05,-104.61
Corinth,42.82,-80.83
Cork,45.71,-66.92
Corkery,45.28,-76.1
Corkscrew Creek 10,53.87,-124.22
Corkscrew Creek 9,53.87,-124.19
Corktown,43.24,-79.86
Corkums Island,44.34,-64.32
Cormac,45.46,-77.29
Cormier Cove,45.95,-64.56
Cormier-Village,46.17,-64.35
Cormierville,46.4,-64.62
Cornell,42.9,-80.62
Cornfield,47.04,-52.89
Cornhill,45.91,-65.34
Cornhill East,45.91,-65.3
Cornwall Centre,45.04,-74.8
Cornwall Island,45.01,-74.68
Cornwall Lake 224,59.6,-110.59
Cornwallis Park,44.65,-65.63
Cornwallis Square,45.07,-64.66
Coronation Gardens,43.95,-79
Coronation Park,42.96,-82.37
Coronation Park,50.47,-104.62
Coronet Additional Industrial,53.5,-113.45
Coronet Industrial,53.49,-113.47
Corriveau,46.12,-71.02
Corsons,44.62,-78.89
Corte-Real,48.9,-64.59
Cortes Bay,50.06,-124.93
Corwhin,43.5,-80.1
Corwin Crescent,43.08,-79.1
Coryatsaqua (Moricetown) 2,55.03,-127.33
Cosine,52.13,-109.93
Cosman Settlement,45.9,-65.45
Cossetteville,46.68,-72.53
Costigan,46.9,-67.75
Cosy Cove,44.49,-77.28
Cote 64,51.63,-101.91
Coteau Beach,51.16,-106.82
Coteau Road,47.83,-64.55
Coteau-du-Lac,45.3,-74.18
Coteau-Landing,45.25,-74.21
Coteau-Mauvais-Riz,47.02,-70.43
Coteau-Station,45.28,-74.23
Côte-d'en-Bas,45.8,-73.31
Côte-de-Sable,45.42,-75.67
Côte-des-Neiges–Notre-Dame-de-Grâce,45.49,-73.62
Côte-des-Perron,45.64,-73.72
Côte-d'Or,46.35,-64.62
Côte-du-Lac,46.93,-71.2
Côte-Nord-du-Golfe-du-Saint-Laurent,50.46,-59.6
Côte-Sainte-Anne,46.57,-64.72
Côte-Saint-Luc,45.46,-73.66
Côte-Saint-Pierre,45.82,-75.06
Cotnam Island,45.79,-77.03
Cotswold,43.86,-80.79
Cottage Cove,44.99,-65.17
Cottesloe,44.4,-78.08
Cottlesville,49.5,-54.86
Cottonwoods,49.84,-99.7
Couchiching 16A,48.68,-93.42
Coude-de-la-Rivière-Moisie,50.26,-66.06
Coughlan,46.76,-65.76
Coughlin,48.88,-88.38
Coulson,44.57,-79.61
Coulson's Hill,44.16,-79.57
Coulter,49.09,-100.98
Country Harbour Lake,45.3,-61.91
Country Harbour Mines,45.25,-61.82
Country Hills,51.06,-114.09
Country Hills,43.41,-80.47
Country Hills Village,51.15,-114.06
Country Place,45.32,-75.7
County of Brant,43.13,-80.28
Courcelles,45.86,-70.98
Courcellette,47.71,-70.05
Courtice,43.91,-78.77
Courtland,42.84,-80.63
Courtland Park,45.37,-75.71
Courville,46.88,-71.16
Cous 3,49.18,-124.83
Coutnac Beach,44.82,-79.91
Couttsville,47.66,-79.69
Couturier,47.68,-69.21
Couturval,48.46,-67.5
Cove Beach,44.33,-78.64
Cove Cliff,49.31,-122.95
Covedell,47.31,-65.01
Coventry,43.9,-79.73
Coventry Hills,51.17,-114.03
Coventry Place,50.46,-104.64
Coverdale,46.04,-64.89
Coverdale,43.96,-78.14
Covey Hill,45.01,-73.75
Coveys Island,44.24,-64.36
Cow Bay,44.62,-63.42
Cowan's Bay,44.33,-78.54
Cowans Creek,47.65,-64.91
Cowessess 73,50.58,-102.67
Cowessess 73A,50.61,-102.5
Cowichan 1,48.76,-123.66
Cowichan 9,48.75,-123.65
Cowichan Lake,48.82,-124.07
Cowichan Station,48.73,-123.66
Cowie Hill,44.63,-63.62
Cowper Lake 194A,55.91,-110.46
Cox Point,46.02,-65.96
Coxheath,46.1,-60.24
Coxvale,44.87,-76.87
Coyle,50.15,-120.88
Coyle,42.98,-79.27
Coytown,45.83,-66.2
CPR,50.4,-105.55
Crab River (Crab Harbour) 18,53.56,-128.76
Cracknell,50.86,-101.24
Crafts Cove,45.73,-66
Craig Henry,45.33,-75.76
Craig Shore,45.04,-76.16
Craigellachie,50.96,-118.71
Craighurst,44.52,-79.72
Craigleith,44.52,-80.32
Craigmawr Beach,44.23,-79.47
Craigmont,45.29,-77.63
Craigmore,45.76,-61.47
Craigmyle,51.66,-112.24
Craigsholme,43.78,-80.27
Craigville,46.96,-65.53
Cramahe,44.08,-77.87
Crampton,42.94,-80.94
Cranberry,49.88,-124.53
Cranberry,46.07,-71.46
Cranberry Junction,55.56,-128.6
Crandall,50.15,-100.78
Crandall Road,45.63,-61.34
Crane River 51,51.49,-99.23
Crane Valley,49.75,-105.52
Cranston,42.99,-79.92
Crathie,43.02,-81.63
Crawford,44.26,-80.93
Crawford Plains,53.43,-113.4
Crawford's Grove,44.27,-78.33
Crean Hill,46.42,-81.35
Creditville,43.15,-80.61
Cree,49.21,-84.7
Cree Lake 192G,57.38,-107.06
Creek Bank,43.7,-80.53
Creek Road,45.93,-65.38
Creighton Heights,44.01,-78.14
Creighton Valley,50.21,-118.78
Creignish Rear,45.71,-61.41
Crescent,49.05,-122.85
Crescent Bay,49.61,-117.15
Crescent Beach,49.33,-121.265
Crescent Beach,44.23,-64.41
Crescent Beach,43.595,-79.2
Crescent Harbour,44.37,-79.53
Crescent Heights,51.05,-114.05
Crescent Heights,50.38,-105.48
Crescent Park,42.89,-78.96
Crescent Town,43.69,-79.29
Crescent Valley,49.45,-117.55
Crescent View,50.4,-105.5
Cresswell,44.28,-78.97
Cressy,44.09,-76.87
Cresthill,46.31,-75.86
Creston 1,49.05,-116.53
Crestview,45.34,-75.73
Crestwood,51.775,-112.105
Crestwynd,50.1,-105.68
Crewe,43.9,-81.64
Crewsons Corners,43.63,-80.08
Crichton Park,44.68,-63.56
Crieff,43.42,-80.15
Crinan,42.65,-81.66
Crique-Clair,47.27,-72.84
Crique-La Corne,48.25,-77.96
Crocker Hill,45.19,-67.25
Crockets Corner,45.78,-65.34
Croft,45.49,-61.83
Crofton,48.86,-123.65
Crofton,44.06,-77.31
Cromar,42.78,-82.26
Cromarty,43.42,-81.35
Crombie Settlement,46.94,-67.49
Cromdale,53.56,-113.46
Cromer,49.73,-101.23
Crooked Bay,44.92,-79.76
Crooked Creek,55.17,-117.88
Crooked Creek,43.97,-78.51
Crooked Lake,44.9,-64.54
Crooked River,52.85,-103.73
Crooks,48.07,-89.52
Crookston,44.43,-77.44
Crosby,44.65,-76.25
Cross Creek,46.3,-66.71
Cross Lake 19,54.61,-97.83
Cross Lake 19A,54.64,-97.76
Cross Lake 19B,54.57,-97.75
Cross Lake 19C,54.59,-97.77
Cross Lake 19D,54.61,-97.94
Cross Lake 19E,54.62,-97.75
Cross Lake 19x01,55.09,-95.97
Cross Lake 19x02,55.08,-96.07
Cross Lake 19x03,55.22,-96.2
Cross Lake 19x05,54.99,-97.4
Cross Lake 19x06,55.07,-97.01
Cross Point Station,48.03,-66.69
Cross Roads,47.01,-65.58
Cross Roads,45.325,-63.645
Cross Roads Ohio,45.48,-62.05
Crossburn,44.74,-64.81
Crosshill,43.53,-80.74
Crossland,44.53,-79.91
Crossley Hunter,42.85,-81.03
Croton,42.61,-82.04
Crouses Settlement,44.34,-64.4
Crousetown,44.26,-64.48
Crow Harbour,45.09,-66.62
Crow Head,49.67,-54.79
Crowe Bridge,44.38,-77.75
Crowes Landing,44.56,-78.06
Crowes Mills,45.4,-63.36
Crowland,42.98,-79.25
Crown Hill,44.43,-79.64
Croydon,44.42,-76.97
Crozier,48.61,-93.53
Cruickshank,44.59,-81.04
Crumlin,43.01,-81.14
Crutwell,53.21,-106.06
Cryderman Subdivision,46.67,-80.74
Crystal,44.79,-75.9
Crystal Bay,45.35,-75.84
Crystal Bay-Sunset,53.55,-108.86
Crystal Falls,46.45,-79.88
Crystal Falls,46.04,-74.6
Crystal Lake,51.85,-102.42
Crystal Rock,44.79,-75.49
Crystal Springs,52.97,-114.03
Crystal Springs,44.22,-78.31
Crystal Springs,52.8,-105.36
Cudsaskwa Beach,52.65,-105.62
Cullen,49.36,-102.95
Cullens Brook,48.04,-65.44
Culligan,47.91,-65.92
Cullite 3,48.59,-124.69
Culloden,44.65,-65.83
Culloden,42.88,-80.84
Culls Harbour,48.67,-53.94
Culross,49.71,-97.91
Cultus,42.63,-80.61
Cumberland 100A,53.04,-104.84
Cumberland 20,53.93,-102.24
Cumberland Mills,46.19,-70.62
Cummings Cove,44.94,-66.99
Cumnock,43.75,-80.45
Cumshewas 7,53.04,-131.69
Cundles,44.4,-79.7
Cunningham's Corners,44.33,-78.69
Curran,45.49,-74.99
Currie,46.76,-67.58
Currie Heights,50.38,-105.55
Currie Road,46.87,-67.58
Currieburg,46.3,-66.81
Curries,43.06,-80.71
Curry Hill,45.2,-74.39
Currys Corner,44.97,-64.13
Curryville,45.83,-64.63
Curtis Park,47.01,-65.44
Curve Lake 35A,44.47,-78.4
Curve Lake First Nation 35,44.48,-78.36
Curventon,47.05,-65.82
Curzon Village,49.51,-57.92
Cushendall,44.32,-76.38
Cushing,45.59,-74.46
Cuslett,46.96,-54.15
Cutbank,51.3,-106.85
Cynthia,53.28,-115.42
Cypress Park,49.34,-123.23
Cyr Junction,47.12,-67.89
Cyrville,45.42,-75.63
Daaquam,46.58,-70.06
Daaquam-Nord,46.61,-70.08
Dablon,48.31,-72.16
Dacotah,49.87,-97.63
Dacre,45.37,-76.96
Dafoe,51.75,-104.52
Dagger Woods,45.59,-61.84
Dahinda,49.73,-105.05
D'Aiguillon,48.82,-64.31
Dain City,42.94,-79.24
Dakiulis 7,50.73,-126.56
Dakota Plains,49.81,-98.52
Dakota Plains 6A,49.81,-98.51
Dakota Tipi,49.94,-98.35
Dakota Tipi 1,49.94,-98.34
Dale,43.98,-78.29
Dalem Lake,46.25,-60.41
D'Alembert,48.36,-79.01
Dalemead,50.87,-113.63
Dalesville,45.7,-74.39
Dalhousie Junction,48.04,-66.5
Dalhousie Lake,44.95,-76.6
Dalhousie Mills,45.31,-74.47
Dalibaire-Ouest,48.93,-66.88
Dalkeith,45.44,-74.57
Dalk-ka-gila-quoeux 2,54.58,-128.66
Dallas,50.66,-120.16
Dallas,51.39,-97.48
Dalroy,51.12,-113.66
Dalrymple,44.64,-79.1
Dalston,44.48,-79.68
Dalton,48.15,-84.03
Dalton Mills,48.12,-84.07
Dalvay,46.41,-63.06
Daly Grove,53.44,-113.39
Damascus,45.46,-65.8
Damascus,43.91,-80.48
Dame-Neuve,45.63,-74.35
Dana,52.3,-105.7
Danbury,52.04,-102.25
Danby,45.67,-72.41
Dancaster Courts,43.21,-79.98
Dance,48.76,-93.67
Dand,49.34,-100.5
Dane,48.07,-80.03
Danesville,44.18,-64.62
Danford Lake,45.92,-76.15
Daniel's Harbour,50.23,-57.58
Daniel's Point,46.75,-53.37
Daningay 12,54.08,-132.57
Danvers,44.37,-65.89
Dapp,54.34,-113.91
Darby,45.41,-72.64
D'Arcy,50.55,-122.48
D'Arcy,51.46,-108.53
Darfield,51.3,-120.18
Darling Road,42.96,-79.69
Darlingford,49.2,-98.37
Darlings Beach,49.97,-107.92
Darlings Lake,43.95,-66.13
Darlingside,44.36,-75.97
Darlington,48.05,-66.38
Darlington,46.31,-63.32
Darmody,50.71,-106.28
Darrell,42.47,-82.18
Dartford,44.22,-77.93
Dartmoor,49.24,-122.82
Darwell,53.67,-114.59
Dashken 22,54.15,-130.16
Dashwood,49.36,-124.51
Dauphin Beach,51.14,-99.84
Dauphin River,51.95,-98.06
Dauphin River 48A,51.95,-98.05
Dauversière,47.76,-65.86
Davidson Corner,45.5,-75.67
Davidson Hill,45.58,-72.37
Davidson Lake,45.94,-67.13
Davidsons Beach,44.36,-76.54
Davie Lake 28,54.53,-122.71
Davies Industrial East,53.5,-113.42
Davies Industrial West,53.49,-113.45
Davin,50.38,-104.1
Davis,53.11,-105.65
Davis Bay,49.43,-123.73
Davis Lock,44.56,-76.28
Davis Mill,47.185,-67.87
Davis Mills,45.75,-77.2
Davisville,43.7,-79.38
Dawn Mills,42.58,-82.12
Dawn Valley,42.65,-82.22
Dawn-Euphemia,42.7,-82.06
Dawson Bay,52.97,-100.97
Dawson Settlement,45.94,-64.75
Dawsonville,47.93,-66.89
Day Hill,45.97,-67.14
Day Mills,46.29,-83.35
Day Star 87,51.53,-104.26
Day's Beach,53.05,-108.34
Dayspring,44.37,-64.47
Dayton,43.87,-66.1
Dayton,46.25,-83.35
Daytonia Beach,44.48,-78.73
Daytown,44.63,-76.1
De Beaujeu,45.32,-74.33
De Forceville,48.52,-64.35
De Grasse,50.21,-66.21
De Grassi Point,44.25,-79.52
De Lesseps,46.12,-74.56
De Quen-Nord,48.33,-72.12
De Saint-Just,47.45,-70
De Winton,50.82,-114.01
Deacon,45.6,-77.37
Deacons Corner,49.82,-96.93
Dead Creek,45.87,-67.51
Dead Islands,52.79,-55.83
Dead Point 5,50.59,-126.59
Deadmans Cove,51.25,-56.78
Deadmans Harbour,45.05,-66.76
Dean,45.19,-62.88
Dean Lake,46.21,-83.15
Deanlea Beach,44.61,-79.99
Deans Corner,44.39,-64.33
Dearlock,48.84,-94.09
Dease Lake 9,58.47,-130.02
Dease River 1,59.28,-129.28
Dease River 2 (Dease),59.42,-129.17
Dease River 2 (Liard),59.65,-129.12
Dease River 3 (Dease),59.6,-129.23
Dease River 3 (Liard),59.31,-129.03
Dease River 4,59.67,-129.16
Deauville,45.34,-72.03
DeBaies Cove,44.75,-62.81
Debert Lake,45.59,-63.46
Debert Range,45.44,-63.47
DeCew Falls,43.1,-79.26
Decewsville,42.93,-79.91
Decker,50.27,-100.78
Deckers Hill,43.86,-79.08
Dedagaus 8,51.11,-127.51
Dee Bank,45.17,-79.52
Deemerton,44.04,-81.07
Deena 3,53.14,-132.12
Deep Bay,49.46,-124.71
Deep Bay,49.67,-54.29
Deep Bay,44.85,-78.79
Deep Cove,49.005,-123.205
Deep Cove,44.61,-66.86
Deep Cove,44.53,-64.1
Deep Creek,50.61,-119.21
Deep Creek 2,52.26,-122.08
Deep Creek 5,53.29,-123.13
Deep Valley 5,50.37,-124.93
Deepdale,46.21,-61.28
Deer Bay,44.54,-78.27
Deer Harbour,48.13,-53.56
Deer Ridge,52.28,-113.83
Deer Run,50.91,-114
Deer Valley,50.58,-104.88
Deerbrook,42.29,-82.62
Deerfield,43.95,-65.99
Deerhorn,50.77,-98.04
Deerhurst,44.18,-79.58
Deerville,46.29,-67.66
Defence Island 28,49.57,-123.27
Defoy,46.14,-72.13
Dejong,43,-81.76
Del Ray,43.7,-79.48
Delaps Cove,44.76,-65.63
Delaware West,42.9,-81.43
Delbrook,49.35,-123.08
Déléage,46.38,-75.91
Deleau,49.58,-100.57
Delhaven,45.2,-64.37
Delisle's Corners,42.18,-83.01
Delkatla,54.01,-132.13
Delmer,42.87,-80.79
Delnite,48.43,-81.29
Delrex,43.64,-79.91
Delson,45.36,-73.55
Delta Beach,50.18,-98.32
Delton,53.56,-113.46
Del-Val,49.08,-66.74
Delwood,53.6,-113.43
Demaine,50.88,-107.25
Demers,45.84,-77.06
Demers-Centre,45.86,-77.06
Demoiselle Creek,45.85,-64.65
Dempseys Corner,45.05,-64.84
Denfield,43.12,-81.43
Denholm,45.81,-75.75
Denholm,52.65,-108.01
Denison Mills,45.74,-72.1
Denmark,45.7,-63.15
Dennis,46.89,-66
Dennis Hill,47.6,-59.17
